stop_id,stop_name,stop_lat,stop_lon,location_type,parent_station,zone_id,level_id,stop_timezone,platform_code,wheelchair_boarding,stop_code,stop_url,stop_desc
node/10218963489,Chez Rifat,5.349222,-3.975893,,,,,,,,,,
node/10218963490,Carrefour garage,5.347851,-3.975529,,,,,,,,,,
node/10218963491,Gorille carrefour,5.346528,-3.975153,,,,,,,,,,
node/10218963492,Carrefour lavage,5.345986,-3.974986,,,,,,,,,,
node/10218963494,Carrefour chefferie,5.341507,-3.974229,,,,,,,,,,
node/10218963495,Carrefour Mosquée Golf,5.338992,-3.979031,,,,,,,,,,
node/10218963496,Campus 2 portail,5.337776,-3.984756,,,,,,,,,,
node/10218963497,District de Police de Cocody,5.336785,-3.985904,,,,,,,,,,
node/10218963498,Campus 1 portail,5.334455,-3.990403,,,,,,,,,,
node/10218963499,Carrefour Kadafy,5.334673,-3.993748,,,,,,,,,,
node/10218963500,Carrefour NSIA,5.335198,-3.998372,,,,,,,,,,
node/10218963501,Feu allocodrome,5.335478,-4.000491,,,,,,,,,,
node/10218963502,Carrefour du marché Cococdy,5.335702,-4.002202,,,,,,,,,,
node/10219015672,Carrefour du marché Cococdy,5.335875,-4.002003,,,,,,,,,,
node/10219015673,Feu de pâtisserie,5.335557,-3.999462,,,,,,,,,,
node/10219015674,Pharmacie Saint Marie,5.335359,-3.997948,,,,,,,,,,
node/10219015675,Carrefour Kadhafi,5.334800,-3.993374,,,,,,,,,,
node/10219015676,Campus 2 portail,5.334655,-3.990409,,,,,,,,,,
node/10219015677,District de Police de Cocody,5.336991,-3.985947,,,,,,,,,,
node/10219015678,Campus 1 portail,5.337957,-3.984934,,,,,,,,,,
node/10219015679,Rond-point Axa,5.338153,-3.975784,,,,,,,,,,
node/10219015680,Carrefour chefferie,5.341637,-3.974276,,,,,,,,,,
node/10219015681,Coco,5.344137,-3.974528,,,,,,,,,,
node/10219015682,Pharmacie Saint Pierre,5.346128,-3.975091,,,,,,,,,,
node/10219015683,Chez Rifat,5.349381,-3.976078,,,,,,,,,,
node/10219015684,Carrefour des prix,5.350121,-3.976257,,,,,,,,,,
node/10219015685,Carrefour SGBCI,5.351108,-3.976507,,,,,,,,,,
node/10219084135,Carrefour jardin,5.333011,-4.000426,,,,,,,,,,
node/10219084137,Patisserie,5.335958,-4.000061,,,,,,,,,,
node/10219084138,Carrefour pâtisserie,5.336633,-3.999987,,,,,,,,,,
node/10219084139,Avant le feu Mermoz,5.339151,-3.999897,,,,,,,,,,
node/10219084140,Feu Mermoz,5.339554,-3.999840,,,,,,,,,,
node/10219090522,Carrefour planet,5.326095,-4.001554,,,,,,,,,,
node/10219090523,Top chef,5.327202,-4.001413,,,,,,,,,,
node/10219090524,ITC,5.327604,-4.002517,,,,,,,,,,
node/10219090525,Carrefour Chancellerie,5.329235,-4.004903,,,,,,,,,,
node/10219090526,Feu Lycée Classique d'Abidjan,5.330432,-4.004764,,,,,,,,,,
node/10219090528,Pharmacie Mermoz,5.339759,-4.002019,,,,,,,,,,
node/10219090530,Sup Elite,5.341723,-3.999425,,,,,,,,,,
node/10219090531,Station,5.344435,-3.998437,,,,,,,,,,
node/10219090532,INSAAC,5.345717,-3.997137,,,,,,,,,,
node/10219284898,Carrefour CMA,5.359425,-3.953770,,,,,,,,,,
node/10219284899,Clinique médicale Saint Viateur,5.359098,-3.952506,,,,,,,,,,
node/10219284900,Rond-point de l'ancien camp,5.358732,-3.951124,,,,,,,,,,
node/10219284901,Da Carmen,5.358539,-3.950095,,,,,,,,,,
node/10219284902,Carrefour béton,5.358176,-3.948906,,,,,,,,,,
node/10219284903,Camp ivoire,5.357922,-3.947563,,,,,,,,,,
node/10219284904,Ancien Camp Akouedo,5.357714,-3.946573,,,,,,,,,,
node/10219284905,Carrefour termitières,5.357491,-3.945202,,,,,,,,,,
node/10219284906,Nouveau pont,5.359259,-3.941693,,,,,,,,,,
node/10219284907,Carrefour Village,5.360310,-3.939908,,,,,,,,,,
node/10219284908,1er étage,5.357335,-3.940393,,,,,,,,,,
node/10219284909,Carrefour marché,5.356623,-3.940510,,,,,,,,,,
node/10219284910,Carrefour Akouédo village,5.355409,-3.940665,,,,,,,,,,
node/10219284911,Carrefour marché,5.356726,-3.940600,,,,,,,,,,
node/10219284912,1er étage,5.357482,-3.940474,,,,,,,,,,
node/10219284913,Le lapin,5.358535,-3.940285,,,,,,,,,,
node/10219284914,Immeuble assurance,5.359327,-3.940154,,,,,,,,,,
node/10219284915,Carrefour bambou,5.357955,-3.943043,,,,,,,,,,
node/10219284916,Antenne,5.357627,-3.943740,,,,,,,,,,
node/10219299417,Garage Koné,5.357418,-3.944400,,,,,,,,,,
node/10219299418,Carrefour termitières,5.357310,-3.945392,,,,,,,,,,
node/10219299419,Camp ivoire,5.357773,-3.947623,,,,,,,,,,
node/10219299420,Carrefour béton,5.358135,-3.949023,,,,,,,,,,
node/10219299421,Rond-point de l'ancien camp,5.358673,-3.951137,,,,,,,,,,
node/10219299422,Clinique médicale Saint Viateur,5.359044,-3.952782,,,,,,,,,,
node/10219299423,Carrefour CMA,5.359437,-3.954245,,,,,,,,,,
node/10219299424,Gare Palmeraie DGI,5.361168,-3.957872,,,,,,,,,,
node/10234827985,Gare Faya,5.367815,-3.937900,,,,,,,,,,
node/10234827986,ATCI 1er portail,5.364927,-3.937102,,,,,,,,,,
node/10234827987,Bon Prix,5.363541,-3.936730,,,,,,,,,,
node/10234827988,Petit portail,5.361829,-3.938476,,,,,,,,,,
node/10234827989,Pharmacie,5.353658,-3.940868,,,,,,,,,,
node/10234827990,Petit portail,5.361916,-3.938548,,,,,,,,,,
node/10234827991,ATCI 1er portail,5.365060,-3.937229,,,,,,,,,,
node/10234827992,ATCI,5.366735,-3.937684,,,,,,,,,,
node/10234827993,Gare Faya,5.367793,-3.937982,,,,,,,,,,
node/10265528610,Cité SIR,5.390010,-3.929767,,,,,,,,,,
node/10265528611,Carrefour Boulangerie,5.389874,-3.928847,,,,,,,,,,
node/10265528612,Carrefour Bassamois,5.389774,-3.928063,,,,,,,,,,
node/10265528613,Carrefour Clinique,5.389648,-3.927351,,,,,,,,,,
node/10265528614,Carrefour Chateau,5.388875,-3.925674,,,,,,,,,,
node/10265528615,Carrefour Prestige,5.387264,-3.927363,,,,,,,,,,
node/10265528616,A l'antenne,5.385909,-3.928809,,,,,,,,,,
node/10265528617,Carrefour Souade,5.384959,-3.929927,,,,,,,,,,
node/10265528618,Carrefour Virage,5.384384,-3.931933,,,,,,,,,,
node/10265528619,Pharmacie Ephrata,5.382655,-3.931811,,,,,,,,,,
node/10265528620,Carrefour Ephrata,5.380407,-3.931202,,,,,,,,,,
node/10265528621,Cité BNETD,5.378795,-3.930802,,,,,,,,,,
node/10265528622,Carrefour Laureades,5.376264,-3.930131,,,,,,,,,,
node/10265528623,Nouveau goudron Abatta,5.374186,-3.928967,,,,,,,,,,
node/10265580836,Nouveau goudron Abatta,5.374643,-3.929160,,,,,,,,,,
node/10265580837,Carrefour Eglise,5.375349,-3.929444,,,,,,,,,,
node/10265580838,Carrefour Laureades,5.376506,-3.930353,,,,,,,,,,
node/10265580839,Garage,5.377701,-3.930702,,,,,,,,,,
node/10265580840,Carrefour Clinique,5.379354,-3.931133,,,,,,,,,,
node/10265580841,Carrefour Ephrata,5.380521,-3.931485,,,,,,,,,,
node/10265580842,Pharmacie Ephrata,5.382747,-3.932063,,,,,,,,,,
node/10265580843,Maquis Virage,5.384069,-3.932401,,,,,,,,,,
node/10265580844,Carrefour Virage,5.384660,-3.931732,,,,,,,,,,
node/10265580845,Carrefour CMA,5.385105,-3.930131,,,,,,,,,,
node/10265580846,Carrefour Minicar,5.385648,-3.929420,,,,,,,,,,
node/10265580847,A l'antenne,5.386396,-3.928628,,,,,,,,,,
node/10265580848,Carrefour Prestige,5.387682,-3.927249,,,,,,,,,,
node/10265580849,Rond Point du Chateau,5.389257,-3.925668,,,,,,,,,,
node/10265580850,Carrefour Ecole,5.389479,-3.926875,,,,,,,,,,
node/10265580851,Carrefour Clinique,5.389583,-3.927500,,,,,,,,,,
node/10265580852,Carrefour Bassamois,5.389723,-3.928373,,,,,,,,,,
node/10265580853,Carrefour Boulangerie,5.389813,-3.929128,,,,,,,,,,
node/10265580854,Cité SIR,5.389903,-3.929757,,,,,,,,,,
node/10268582066,Carrefour Prestige,5.387447,-3.927111,,,,,,,,,,
node/10268582067,Carrefour Chateau,5.387193,-3.925691,,,,,,,,,,
node/10268582068,Carrefour Sylla,5.386991,-3.924441,,,,,,,,,,
node/10268582070,Cité Prestige,5.386256,-3.920594,,,,,,,,,,
node/10268582071,Cité Prestige,5.386242,-3.920680,,,,,,,,,,
node/10268582072,Carrefour terre ivoire,5.386765,-3.922983,,,,,,,,,,
node/10268582073,Carrefour terre ivoire,5.386703,-3.923204,,,,,,,,,,
node/10268582074,Carrefour Chateau,5.387133,-3.925706,,,,,,,,,,
node/10268582075,Cité BNETD,5.378885,-3.930999,,,,,,,,,,
node/10268582076,Garage,5.377372,-3.930427,,,,,,,,,,
node/10268582077,Nouveau goudron Abatta,5.374123,-3.929002,,,,,,,,,,
node/10273846184,Arrêt Sotra,5.399085,-3.951984,,,,,,,,,,
node/10273846186,Nouveau CHU,5.399446,-3.953441,,,,,,,,,,
node/10273846187,Carrefour Rois des Rois,5.396189,-3.931920,,,,,,,,,,
node/10273846188,Carrefour Docteur,5.396560,-3.934570,,,,,,,,,,
node/10273846189,Immeuble Rouge,5.396937,-3.937400,,,,,,,,,,
node/10273846190,Carrefour Djorobité,5.397252,-3.939690,,,,,,,,,,
node/10273846191,Carrefour Mosquée,5.397806,-3.943207,,,,,,,,,,
node/10273846192,Carrefour Base CIE,5.398454,-3.947753,,,,,,,,,,
node/10273846193,Nouveau CHU,5.399500,-3.953860,,,,,,,,,,
node/10273846194,Arrêt Sotra,5.399242,-3.951667,,,,,,,,,,
node/10273846195,Carrefour Eglise,5.399007,-3.950078,,,,,,,,,,
node/10273846196,Carrefour Base CIE,5.398636,-3.947496,,,,,,,,,,
node/10273846197,Carrefour Miss Zahoui,5.398243,-3.944354,,,,,,,,,,
node/10273846198,Carrefour Mosquée,5.398022,-3.943014,,,,,,,,,,
node/10273846199,Carrefour Djorobité,5.397507,-3.939390,,,,,,,,,,
node/10273846200,Immeuble Rouge,5.397155,-3.936962,,,,,,,,,,
node/10273846201,Carrefour Docteur,5.396790,-3.934339,,,,,,,,,,
node/10273846202,Carrefour Rois des Rois,5.396384,-3.931556,,,,,,,,,,
node/10273846203,Carrefour Nouvelle Construction,5.395988,-3.928475,,,,,,,,,,
node/10273846204,Carrefour Gendarme,5.395131,-3.924094,,,,,,,,,,
node/10273846205,Carrefour Gendarme,5.395208,-3.923843,,,,,,,,,,
node/10273846206,1er Arrêt,5.393180,-3.923159,,,,,,,,,,
node/10273846207,Rond Point du Chateau,5.389458,-3.925276,,,,,,,,,,
node/10273846208,Au Feu,5.390975,-3.922529,,,,,,,,,,
node/10273858209,Au Feu,5.391010,-3.922288,,,,,,,,,,
node/10273858210,A la Terrasse,5.389779,-3.924175,,,,,,,,,,
node/10276806528,Nouveau goudron Abatta,5.374379,-3.928898,,,,,,,,,,
node/10276806529,Boulangerie,5.390160,-3.923825,,,,,,,,,,
node/10276806530,Carrefour Nouvelle Construction,5.395838,-3.928953,,,,,,,,,,
node/10276806531,Carrefour Miss Zahoui,5.398060,-3.944726,,,,,,,,,,
node/10276806532,Carrefour Nouveau CHU,5.399365,-3.953972,,,,,,,,,,
node/10276806533,Pharmacie Sainte Clémentine,5.405099,-3.956167,,,,,,,,,,
node/10276806534,Carrefour Oribat,5.413571,-3.962126,,,,,,,,,,
node/10276806535,Carrefour Akissi Delta,5.415155,-3.963279,,,,,,,,,,
node/10276806536,Boulangerie Flamand,5.416863,-3.964482,,,,,,,,,,
node/10276806537,Carrefour des prêtes,5.419640,-3.966755,,,,,,,,,,
node/10276806538,Carrefour Cabri,5.420148,-3.968932,,,,,,,,,,
node/10276806539,Carrefou Kanga,5.418997,-3.971740,,,,,,,,,,
node/10276806540,Pharmacie Redemption,5.416771,-3.974969,,,,,,,,,,
node/10276806608,Angre fin goudron,5.415706,-3.976846,,,,,,,,,,
node/10276820709,Carrefour Cité Militaire,5.417402,-3.974327,,,,,,,,,,
node/10276820710,A la Boulangerie,5.418154,-3.973224,,,,,,,,,,
node/10276820711,Carrefou Kanga,5.419302,-3.971531,,,,,,,,,,
node/10276820712,Carrefour Cabri,5.420264,-3.968536,,,,,,,,,,
node/10276820713,Carrefour des prêtes,5.416709,-3.964191,,,,,,,,,,
node/10276820714,EPV les merveilles,5.415463,-3.963288,,,,,,,,,,
node/10276820715,Carrefour Oribat,5.413662,-3.961941,,,,,,,,,,
node/10276820716,Pharmacie Sainte Clémentine,5.404710,-3.955724,,,,,,,,,,
node/10276820717,CHU Angré,5.399850,-3.956238,,,,,,,,,,
node/10276820718,Rond Point du Chateau,5.389126,-3.925360,,,,,,,,,,
node/10276820719,Nouveau goudron Abatta,5.374464,-3.928936,,,,,,,,,,
node/10289441892,Carrefour Duncan,5.377598,-3.997211,,,,,,,,,,
node/10289441893,RTI Publicité,5.377178,-3.995290,,,,,,,,,,
node/10289441894,BOA Agence Rue des jardins,5.371625,-3.990237,,,,,,,,,,
node/10289441895,Nuit Saigon,5.368406,-3.989748,,,,,,,,,,
node/10289441896,Mr Chou,5.367027,-3.989681,,,,,,,,,,
node/10289441898,Club House,5.366196,-3.989775,,,,,,,,,,
node/10289441899,Nuit Saigon,5.368521,-3.989858,,,,,,,,,,
node/10289441900,Pharmacie Saint Joseph,5.369216,-3.989950,,,,,,,,,,
node/10289441901,BOA Agence Rue des jardins,5.371735,-3.990337,,,,,,,,,,
node/10289441902,Indian Bazaar,5.373309,-3.990588,,,,,,,,,,
node/10289441903,Carrefour 12ème,5.373889,-3.990435,,,,,,,,,,
node/10289441904,Carrefour 12ème,5.373982,-3.990528,,,,,,,,,,
node/10289441905,Akwaba,5.374872,-3.990516,,,,,,,,,,
node/10289441907,RTI Publicité,5.377100,-3.995406,,,,,,,,,,
node/10290362012,Akwaba,5.374663,-3.990447,,,,,,,,,,
node/10290362014,Justice du commerce,5.373244,-3.985335,,,,,,,,,,
node/10290362015,Commisariat 30è Art.,5.373836,-3.984465,,,,,,,,,,
node/10290362016,Assurance Royale,5.372240,-3.982978,,,,,,,,,,
node/10290362017,Carrefour Grande Mosquée,5.371376,-3.982168,,,,,,,,,,
node/10290362018,Pharmacie Saint Bernard,5.367429,-3.979502,,,,,,,,,,
node/10290362020,Carrefour Boulangerie,5.368860,-3.980151,,,,,,,,,,
node/10290362022,Ancien SARITEL,5.371277,-3.982161,,,,,,,,,,
node/10290362023,Cité Abri 2000,5.371662,-3.982508,,,,,,,,,,
node/10290362024,Assurance Royale,5.372511,-3.983368,,,,,,,,,,
node/10290362025,Commisariat 30è Art.,5.373741,-3.984739,,,,,,,,,,
node/10290362026,Carrefour Gobelet,5.372949,-3.985549,,,,,,,,,,
node/10290362027,Eglise Cema,5.372437,-3.986100,,,,,,,,,,
node/10290362028,Ambassade du Mali,5.371881,-3.988486,,,,,,,,,,
node/10290362029,Ambassade du Mali,5.371792,-3.988544,,,,,,,,,,
node/10290362030,Immigration Canada,5.371801,-3.989214,,,,,,,,,,
node/10290362031,Immigration Canada,5.371688,-3.989408,,,,,,,,,,
node/10293232212,Gare Abatta Village,5.328220,-3.916714,,,,,,,,,,
node/10293232213,Carrefour Pinasse,5.328178,-3.922469,,,,,,,,,,
node/10293232214,Miami beach,5.332169,-3.922598,,,,,,,,,,
node/10293232215,Carrefour Garage,5.338020,-3.923232,,,,,,,,,,
node/10293232216,Oribat,5.339556,-3.922780,,,,,,,,,,
node/10293232217,Carrefour Sicta,5.342329,-3.922035,,,,,,,,,,
node/10293232218,Carrefour Beceao,5.344725,-3.922437,,,,,,,,,,
node/10293232219,Garba Choco,5.346773,-3.922902,,,,,,,,,,
node/10293232220,Gare Nouveau Goudron,5.347395,-3.923027,,,,,,,,,,
node/10293232221,ComZone,5.348207,-3.923204,,,,,,,,,,
node/10293232222,Pancho,5.349520,-3.923508,,,,,,,,,,
node/10293232223,Carrefour Cyber,5.350213,-3.923676,,,,,,,,,,
node/10293232224,Carrefour Veninzoir,5.351724,-3.924038,,,,,,,,,,
node/10293232225,Carrefour Coquivoire,5.353246,-3.924380,,,,,,,,,,
node/10293232226,Carrefour Lapin,5.354715,-3.924685,,,,,,,,,,
node/10293232227,Carrefour Drogba,5.355531,-3.924881,,,,,,,,,,
node/10293232228,AB Center,5.358136,-3.925481,,,,,,,,,,
node/10293232229,Sodeci Abatta,5.359554,-3.925871,,,,,,,,,,
node/10293232230,Prumux,5.360649,-3.926155,,,,,,,,,,
node/10293232231,Carrefour Lumière,5.361620,-3.926416,,,,,,,,,,
node/10293232232,Ferronnerie,5.363799,-3.927002,,,,,,,,,,
node/10293232233,Carrefour Policier,5.366653,-3.927771,,,,,,,,,,
node/10293232234,Gare Nouveau Goudron,5.370316,-3.928777,,,,,,,,,,
node/10293246985,Terminus Nouveau Goudron,5.371661,-3.928917,,,,,,,,,,
node/10293246987,Carrefour El vivo,5.368766,-3.928119,,,,,,,,,,
node/10293246988,Carrefour Policier,5.366683,-3.927547,,,,,,,,,,
node/10293246989,Ferronnerie,5.363840,-3.926824,,,,,,,,,,
node/10293246990,Carrefour Lumière,5.361798,-3.926286,,,,,,,,,,
node/10293246991,Prumux,5.360650,-3.925987,,,,,,,,,,
node/10293246992,AB Center,5.357832,-3.925235,,,,,,,,,,
node/10293246993,Carrefour Drogba,5.355341,-3.924635,,,,,,,,,,
node/10293246994,Carrefour Lapin,5.354567,-3.924454,,,,,,,,,,
node/10293246995,Carrefour Mosquée,5.353060,-3.924116,,,,,,,,,,
node/10293246996,Carrefour Veninzoir,5.351666,-3.923827,,,,,,,,,,
node/10293246997,Carrefour Cyber,5.350352,-3.923523,,,,,,,,,,
node/10293246998,Pancho,5.349805,-3.923379,,,,,,,,,,
node/10293246999,Bananier,5.349059,-3.923212,,,,,,,,,,
node/10293247000,ComZone,5.348270,-3.923047,,,,,,,,,,
node/10293247001,Mondial Beton,5.347542,-3.922862,,,,,,,,,,
node/10293247002,Carrefour le blanc,5.343969,-3.922084,,,,,,,,,,
node/10293247003,Carrefour Sicta,5.342181,-3.921863,,,,,,,,,,
node/10293247004,Oribat,5.339531,-3.922619,,,,,,,,,,
node/10293247005,Carrefour Garage,5.337685,-3.923126,,,,,,,,,,
node/10293247006,Miami beach,5.332295,-3.922420,,,,,,,,,,
node/10293247007,Carrefour Pinasse,5.328100,-3.922094,,,,,,,,,,
node/10293247008,Gare Abatta Village,5.328297,-3.916737,,,,,,,,,,
node/10293290885,Au Lavage,5.351531,-3.975485,,,,,,,,,,
node/10293290887,Pharmacie Saint-Pierre des Rosées,5.353942,-3.957691,,,,,,,,,,
node/10293290888,Bon Pasteur,5.351081,-3.954397,,,,,,,,,,
node/10293290889,Lycée Américain,5.347975,-3.952781,,,,,,,,,,
node/10293290890,Mel Théodore,5.345521,-3.952473,,,,,,,,,,
node/10293290891,Brandon,5.341090,-3.952229,,,,,,,,,,
node/10293312731,Ancien Terminus M'pouto,5.330909,-3.957170,,,,,,,,,,
node/10293312732,Chantier,5.330288,-3.955159,,,,,,,,,,
node/10293312733,Coqivoire,5.329891,-3.953956,,,,,,,,,,
node/10293312734,Mosquee CIAD,5.329027,-3.951249,,,,,,,,,,
node/10293312735,Pharmacie M'Pouto,5.328425,-3.949083,,,,,,,,,,
node/10293312736,Pharmacie Eden,5.328458,-3.943664,,,,,,,,,,
node/10293312738,Vatican,5.328441,-3.942799,,,,,,,,,,
node/10293312739,Panier d'Or,5.335205,-3.944168,,,,,,,,,,
node/10293312740,Carrefour Antenne,5.340283,-3.945263,,,,,,,,,,
node/10293312741,Cité Belles Fleurs Riviera 3,5.346354,-3.952746,,,,,,,,,,
node/10293312742,Lycée Américain,5.348255,-3.953115,,,,,,,,,,
node/10293312743,Ancien Garage,5.349900,-3.954476,,,,,,,,,,
node/10293312745,Pharmacie St Agathe,5.355237,-3.960981,,,,,,,,,,
node/10293312746,Cap Nord,5.355279,-3.966932,,,,,,,,,,
node/10293312747,Sainte Famille,5.353417,-3.968197,,,,,,,,,,
node/10293356480,Boutique Bleue,5.354512,-3.962530,,,,,,,,,,
node/10293356481,Maison Blanche,5.336937,-3.953691,,,,,,,,,,
node/10293356482,Banny,5.334142,-3.956125,,,,,,,,,,
node/10293356483,Carrefour Pinasse,5.326354,-3.959324,,,,,,,,,,
node/10293356484,Terminus STL,5.325109,-3.960011,,,,,,,,,,
node/10293372511,Terminus STL,5.325154,-3.960094,,,,,,,,,,
node/10293372513,Carrefour Pinasse,5.326462,-3.959399,,,,,,,,,,
node/10293372514,Carrefour Affi,5.338644,-3.952427,,,,,,,,,,
node/10293372515,Brandon,5.341701,-3.952452,,,,,,,,,,
node/10293470011,Carrefour Martin,5.332443,-3.936563,,,,,,,,,,
node/10293470012,A la foire,5.333327,-3.937399,,,,,,,,,,
node/10293470013,Carrefour Université,5.334383,-3.938384,,,,,,,,,,
node/10293470014,Carrefour Valinbet,5.336659,-3.940506,,,,,,,,,,
node/10293470015,Carrefour Akwaba,5.337730,-3.941675,,,,,,,,,,
node/10293470017,Gare 9 Kilo,5.356923,-3.962969,,,,,,,,,,
node/10293476051,Gare 9 Kilo,5.356527,-3.962884,,,,,,,,,,
node/10293476052,Mel Théodore,5.345892,-3.952401,,,,,,,,,,
node/10293476053,Carrefour Akouédo / Synacassi 2,5.346107,-3.945638,,,,,,,,,,
node/10293476054,Carrefour Antenne,5.340050,-3.944958,,,,,,,,,,
node/10293476055,Carrefour Akwaba,5.337703,-3.941516,,,,,,,,,,
node/10293476056,Pharmacie Bonne Fortune,5.335391,-3.939195,,,,,,,,,,
node/10293476057,Carrefour Université,5.334592,-3.938475,,,,,,,,,,
node/10293476058,A la foire,5.333312,-3.937274,,,,,,,,,,
node/10293476059,Carrefour Martin,5.332440,-3.936487,,,,,,,,,,
node/10293476060,La ferme,5.331129,-3.935284,,,,,,,,,,
node/10293476061,Nouveau marché,5.329381,-3.933140,,,,,,,,,,
node/10293476062,Cocody Riviera M'badon,5.328692,-3.932421,,,,,,,,,,
node/10293802641,Escalier,5.492889,-4.051714,,,,,,,,,,
node/10293802642,La croix,5.498901,-4.049715,,,,,,,,,,
node/10293802643,Carrefour Royaume,5.498642,-4.050674,,,,,,,,,,
node/10293802644,Don Orione,5.498917,-4.049445,,,,,,,,,,
node/10293802645,Don Orione,5.499048,-4.049266,,,,,,,,,,
node/10293802646,Carrefour Marché,5.499333,-4.047950,,,,,,,,,,
node/10293802647,Carrefour Marché,5.499400,-4.047895,,,,,,,,,,
node/10293802648,Carrefour Tanoh,5.499625,-4.047043,,,,,,,,,,
node/10293802649,Hôpital,5.499846,-4.046403,,,,,,,,,,
node/10293802650,Hôpital,5.499782,-4.046393,,,,,,,,,,
node/10293802651,Carrefour Maternité,5.498281,-4.051275,,,,,,,,,,
node/10293802652,SGBCI,5.497414,-4.051498,,,,,,,,,,
node/10293802653,SGBCI,5.497221,-4.051429,,,,,,,,,,
node/10293802654,Shell,5.495577,-4.051739,,,,,,,,,,
node/10293802655,Shell,5.495302,-4.051676,,,,,,,,,,
node/10293802656,Inspection,5.493653,-4.051798,,,,,,,,,,
node/10293802657,Inspection,5.493505,-4.051625,,,,,,,,,,
node/10293802658,Carrefour Château,5.490798,-4.051723,,,,,,,,,,
node/10293802659,Scierie,5.492364,-4.051697,,,,,,,,,,
node/10293802660,Scierie,5.492255,-4.051586,,,,,,,,,,
node/10293802661,Carrefour Château,5.490555,-4.051561,,,,,,,,,,
node/10293802662,Carrefour Zossonkoi,5.485016,-4.051436,,,,,,,,,,
node/10293802663,Carrefour Zossonkoi,5.484713,-4.051343,,,,,,,,,,
node/10293854668,Carrefour Château,5.490630,-4.051720,,,,,,,,,,
node/10293854669,Lavage,5.496973,-4.063656,,,,,,,,,,
node/10293854671,Terminus Seminaire,5.497876,-4.066043,,,,,,,,,,
node/10293854672,Terminus Seminaire,5.497935,-4.066021,,,,,,,,,,
node/10293854673,Carrefour Seminaire,5.497693,-4.064966,,,,,,,,,,
node/10293854674,Carrefour Lycée,5.495878,-4.062631,,,,,,,,,,
node/10293854675,Carrefour Lycée,5.495753,-4.062408,,,,,,,,,,
node/10293854676,En Bas du Pont,5.494209,-4.061075,,,,,,,,,,
node/10293854677,Petit Pont,5.494197,-4.060737,,,,,,,,,,
node/10293854678,En Bas du Pont,5.492773,-4.056053,,,,,,,,,,
node/10293854679,En Bas du Pont,5.492825,-4.055929,,,,,,,,,,
node/10293854680,Sainte Monique,5.490748,-4.054810,,,,,,,,,,
node/10293854681,Sainte Monique,5.490802,-4.054507,,,,,,,,,,
node/10293919005,Grand carrefour,5.512566,-4.059654,,,,,,,,,,
node/10293919007,Au Pont,5.511133,-4.057645,,,,,,,,,,
node/10293919008,Au Pont,5.511036,-4.057386,,,,,,,,,,
node/10293941109,Gendarmerie,5.506259,-4.053567,,,,,,,,,,
node/10293941110,Gendarmerie,5.505936,-4.053386,,,,,,,,,,
node/10293941111,Police,5.505770,-4.053427,,,,,,,,,,
node/10293941112,Police,5.505299,-4.053194,,,,,,,,,,
node/10293941113,Carrefour Yapokoi,5.504369,-4.053047,,,,,,,,,,
node/10293941114,Carrefour Yapokoi,5.504491,-4.052967,,,,,,,,,,
node/10293941115,Schneider,5.503171,-4.052699,,,,,,,,,,
node/10293941116,Schneider,5.503136,-4.052561,,,,,,,,,,
node/10293941117,PDCI,5.502313,-4.052317,,,,,,,,,,
node/10293941118,Mission Catholique,5.499764,-4.051741,,,,,,,,,,
node/10293941119,Mission Catholique,5.499440,-4.051540,,,,,,,,,,
node/10293941120,Carrefour Maternité,5.498625,-4.051432,,,,,,,,,,
node/10294996099,Ancienne Gendarmerie,5.461919,-4.053912,,,,,,,,,,
node/10294996100,Abossia,5.465491,-4.054307,,,,,,,,,,
node/10294996101,Morgue,5.472415,-4.054374,,,,,,,,,,
node/10294996102,Colatier,5.479778,-4.053632,,,,,,,,,,
node/10294996103,PDCI,5.502502,-4.052559,,,,,,,,,,
node/10294996104,Gare Routière,5.480120,-4.052988,,,,,,,,,,
node/10294996105,Carrefour à Gauche,5.477922,-4.055476,,,,,,,,,,
node/10294996106,Carrefour à Gauche,5.477743,-4.055374,,,,,,,,,,
node/10294996107,A l'école,5.475489,-4.055314,,,,,,,,,,
node/10294996108,A l'école,5.475389,-4.055092,,,,,,,,,,
node/10295005609,Kedjenou,5.469198,-4.052972,,,,,,,,,,
node/10295005610,Contrôle,5.470640,-4.053278,,,,,,,,,,
node/10295005611,Contrôle,5.470456,-4.053011,,,,,,,,,,
node/10295005612,Kedjenou,5.468956,-4.052784,,,,,,,,,,
node/10295005613,Berthé,5.467505,-4.053338,,,,,,,,,,
node/10295005614,Abossia,5.465082,-4.054183,,,,,,,,,,
node/10295014154,Carrefour les Roses Vallées,5.381780,-3.912395,,,,,,,,,,
node/10295014155,Station,5.374754,-3.911779,,,,,,,,,,
node/10295014156,Pharmacie,5.377861,-3.912742,,,,,,,,,,
node/10295014158,Grâce Esther,5.382744,-3.906982,,,,,,,,,,
node/10295014159,Cité anthena 6 extension 8,5.383703,-3.905276,,,,,,,,,,
node/10295014161,Grâce Esther,5.382629,-3.907024,,,,,,,,,,
node/10295014162,Carrefour Eglise,5.382290,-3.907647,,,,,,,,,,
node/10295014163,Carrefour les Roses Vallées,5.381734,-3.912319,,,,,,,,,,
node/10295014164,Carrefour Prunelle,5.379436,-3.912505,,,,,,,,,,
node/10295014165,Pharmacie,5.377796,-3.912703,,,,,,,,,,
node/10295064212,Institut Britanique,5.332790,-3.957321,,,,,,,,,,
node/10295064213,Chantier,5.329605,-3.955257,,,,,,,,,,
node/10295064214,Pharmacie Boaz,5.328240,-3.954233,,,,,,,,,,
node/10295064215,Gare des Wôrô Wôrô - M'Pouto,5.324685,-3.954851,,,,,,,,,,
node/10295064216,Gare des Wôrô Wôrô - M'Pouto,5.324727,-3.954935,,,,,,,,,,
node/10295064217,Pharmacie Boaz,5.328252,-3.954350,,,,,,,,,,
node/10295064218,Chantier,5.330205,-3.955283,,,,,,,,,,
node/10295064219,Carrefour Philadelphie,5.331009,-3.957748,,,,,,,,,,
node/10295106545,Carrefour Medical,5.386233,-3.912986,,,,,,,,,,
node/10295106546,Carrefour Panneau 50,5.393609,-3.907955,,,,,,,,,,
node/10295106547,Carrefour Residence,5.391508,-3.910262,,,,,,,,,,
node/10295106549,Carrefour Residence,5.391439,-3.910262,,,,,,,,,,
node/10295106550,Carrefour Eglise,5.391735,-3.911831,,,,,,,,,,
node/10295106551,Carrefour Eglise,5.391659,-3.911894,,,,,,,,,,
node/10295106552,Carrefour Medical,5.386338,-3.912900,,,,,,,,,,
node/10295106553,Carrefour Moye-Dhan,5.385404,-3.912586,,,,,,,,,,
node/10295106554,Carrefour Moye-Dhan,5.385193,-3.912485,,,,,,,,,,
node/10295106555,Carrefour Panneau Stop,5.383776,-3.912493,,,,,,,,,,
node/10295106556,Carrefour Panneau Stop,5.383749,-3.912420,,,,,,,,,,
node/10295106557,Carrefour Panneau,5.381064,-3.912317,,,,,,,,,,
node/10295106558,Carrefour Miri,5.382932,-3.912506,,,,,,,,,,
node/10295106559,Carrefour Miri,5.383136,-3.912397,,,,,,,,,,
node/10295106560,Carrefour Panneau,5.381031,-3.912266,,,,,,,,,,
node/10295106561,Gare Feh Kessé,5.374290,-3.911265,,,,,,,,,,
node/10295106738,Au guerré,5.347741,-3.941576,,,,,,,,,,
node/10295106739,Elishama,5.347411,-3.942279,,,,,,,,,,
node/10295106740,Carrefour Mosquée,5.346814,-3.943437,,,,,,,,,,
node/10295106741,A l'etage,5.346700,-3.943950,,,,,,,,,,
node/10295106742,Carrefour Alpha,5.353412,-3.969807,,,,,,,,,,
node/10295106743,Elysée Viera,5.351852,-3.971738,,,,,,,,,,
node/10295136978,Carrefour Antenne,5.339872,-3.945206,,,,,,,,,,
node/10295136979,Panier d'Or,5.335093,-3.943934,,,,,,,,,,
node/10295136980,Ambassade de Chine,5.331373,-3.940443,,,,,,,,,,
node/10295136981,Carrefour M'Badon,5.328871,-3.938397,,,,,,,,,,
node/10295136982,Ecole Libanaise,5.328345,-3.945056,,,,,,,,,,
node/10295136983,Mosquee CIAD,5.328796,-3.950830,,,,,,,,,,
node/10295136984,Pharmacie M'Pouto,5.328335,-3.949093,,,,,,,,,,
node/10295136985,Hôtel Coquette,5.329161,-3.938182,,,,,,,,,,
node/10295136986,Ambassade de Chine,5.333145,-3.942182,,,,,,,,,,
node/10295136987,Cité de doyen,5.335944,-3.944854,,,,,,,,,,
node/10295139991,A l'etage,5.346718,-3.944064,,,,,,,,,,
node/10295248947,Lycée Garçon de Bingerville,5.357895,-3.890668,,,,,,,,,,
node/10295248948,EMPT,5.360285,-3.890488,,,,,,,,,,
node/10295248949,Ecole,5.362724,-3.890295,,,,,,,,,,
node/10295248950,Carrefour Beauté,5.375327,-3.887346,,,,,,,,,,
node/10295248951,Carrefour Jardin,5.374521,-3.884949,,,,,,,,,,
node/10295248952,Carrefour Jardin,5.374466,-3.884897,,,,,,,,,,
node/10295248953,Carrefour Beauté,5.375304,-3.887450,,,,,,,,,,
node/10295248955,Pharmacie,5.375675,-3.888839,,,,,,,,,,
node/10295248956,Pharmacie,5.375660,-3.889028,,,,,,,,,,
node/10295248957,Ecole,5.362635,-3.890233,,,,,,,,,,
node/10295248958,Orphelinat,5.359794,-3.888154,,,,,,,,,,
node/10295423497,Pharmacie Bel Horizon,5.405973,-3.990681,,,,,,,,,,
node/10295423498,Carrefour Batim,5.409948,-3.985271,,,,,,,,,,
node/10295423499,Pharmacie Centrale Angré,5.411286,-3.983327,,,,,,,,,,
node/10295423500,Pharmacie du château Angré,5.413613,-3.979966,,,,,,,,,,
node/10295423501,Sococé,5.413107,-3.980707,,,,,,,,,,
node/10295528942,Carrefour Auberge,5.364112,-3.896652,,,,,,,,,,
node/10295528943,Au Boeuf,5.371875,-3.895504,,,,,,,,,,
node/10295528944,Carrefour Eglise,5.383368,-3.893895,,,,,,,,,,
node/10295528945,Belle Cote,5.385441,-3.892936,,,,,,,,,,
node/10295528946,1er Lavage,5.387369,-3.892785,,,,,,,,,,
node/10295528947,2ème Lavage,5.391051,-3.893720,,,,,,,,,,
node/10295528948,Maison Blanche,5.392381,-3.893964,,,,,,,,,,
node/10295528949,A l'immeuble,5.395463,-3.894624,,,,,,,,,,
node/10295528950,Carrefour Cie,5.396406,-3.894877,,,,,,,,,,
node/10295528951,Mosquée,5.397234,-3.895081,,,,,,,,,,
node/10295528952,Washington,5.398167,-3.895337,,,,,,,,,,
node/10295528953,Carrefour Kadafi,5.398800,-3.895468,,,,,,,,,,
node/10295528954,Ecole,5.399585,-3.895677,,,,,,,,,,
node/10295528955,Carrefour La Vieille,5.400953,-3.895976,,,,,,,,,,
node/10295528956,Entrepôt,5.402310,-3.896285,,,,,,,,,,
node/10295528957,Maison en fer,5.405381,-3.895717,,,,,,,,,,
node/10295528958,Carrefour George,5.407258,-3.895350,,,,,,,,,,
node/10295528959,Carrefour Camp,5.411385,-3.900292,,,,,,,,,,
node/10295528960,Panneau Akandjé,5.412524,-3.898543,,,,,,,,,,
node/10295528961,Carrefour Camp,5.411221,-3.899972,,,,,,,,,,
node/10295528962,Carrefour George,5.407194,-3.895177,,,,,,,,,,
node/10295528963,Maison en fer,5.405243,-3.895650,,,,,,,,,,
node/10295528964,St Michel,5.404747,-3.895994,,,,,,,,,,
node/10295528965,Entrepôt,5.402250,-3.896192,,,,,,,,,,
node/10295528966,Carrefour La Vieille,5.400880,-3.895861,,,,,,,,,,
node/10295528967,Ecole,5.399603,-3.895567,,,,,,,,,,
node/10295528968,Carrefour Kadafi,5.398762,-3.895341,,,,,,,,,,
node/10295528969,Washington,5.398138,-3.895213,,,,,,,,,,
node/10295528970,Mosquée,5.397212,-3.894992,,,,,,,,,,
node/10295528971,Carrefour Cie,5.396384,-3.894787,,,,,,,,,,
node/10295528972,A l'immeuble,5.395439,-3.894578,,,,,,,,,,
node/10295528973,Pharmacie Akandjé,5.394016,-3.894223,,,,,,,,,,
node/10295528974,Maison Blanche,5.392351,-3.893760,,,,,,,,,,
node/10295528975,2ème Lavage,5.390989,-3.893462,,,,,,,,,,
node/10295528976,Lavage Auto,5.389055,-3.893164,,,,,,,,,,
node/10295528977,1er Lavage,5.387420,-3.892695,,,,,,,,,,
node/10295528978,Belle Cote,5.385408,-3.892808,,,,,,,,,,
node/10295528979,Carrefour Eglise,5.383318,-3.893851,,,,,,,,,,
node/10295528980,Au Boeuf,5.371787,-3.895396,,,,,,,,,,
node/10295528981,Cap Lavage,5.368833,-3.895909,,,,,,,,,,
node/10295528982,Carrefour Auberge,5.363986,-3.896589,,,,,,,,,,
node/10295528983,Station,5.361554,-3.894503,,,,,,,,,,
node/10295603526,Carrefour Gbagba Nord,5.350391,-3.884846,,,,,,,,,,
node/10295603527,Au Marché,5.336856,-3.891649,,,,,,,,,,
node/10295603529,Lavage,5.337676,-3.891274,,,,,,,,,,
node/10295603530,Lavage,5.337793,-3.891389,,,,,,,,,,
node/10295603531,Carrefour Cave,5.338446,-3.891089,,,,,,,,,,
node/10295603532,Carrefour Cave,5.338589,-3.891215,,,,,,,,,,
node/10295603533,Carrefour Mosquée,5.340650,-3.890572,,,,,,,,,,
node/10295603534,Carrefour Mosquée,5.340823,-3.890658,,,,,,,,,,
node/10295603535,Carrefour Eglise,5.341855,-3.890260,,,,,,,,,,
node/10295603536,Carrefour Eglise,5.341917,-3.890378,,,,,,,,,,
node/10295603537,Marché,5.343163,-3.890088,,,,,,,,,,
node/10295603538,Carrefour Temple,5.346003,-3.889221,,,,,,,,,,
node/10295603539,Pâtisserie,5.346185,-3.888910,,,,,,,,,,
node/10295603540,Carrefour Residence,5.347369,-3.888825,,,,,,,,,,
node/10295603541,Garage,5.348386,-3.887403,,,,,,,,,,
node/10295603543,Pharmacie Gbagba,5.349117,-3.884974,,,,,,,,,,
node/10295603544,Carrefour Gbagba Nord,5.350529,-3.884965,,,,,,,,,,
node/10295603545,Bangui,5.356419,-3.883257,,,,,,,,,,
node/10295758266,Carrefour Sicogi 2,5.354555,-3.879683,,,,,,,,,,
node/10295758267,Carrefour Kiosque,5.341909,-3.860855,,,,,,,,,,
node/10295758268,Laurier 22,5.337206,-3.860485,,,,,,,,,,
node/10295758269,Petit Carrefour,5.336411,-3.861118,,,,,,,,,,
node/10295758270,Eglise,5.335629,-3.861747,,,,,,,,,,
node/10295758271,Après le pont,5.335017,-3.862201,,,,,,,,,,
node/10295758272,Carrefour Fromager,5.326725,-3.867676,,,,,,,,,,
node/10295758273,Carrefour Logement,5.322925,-3.871817,,,,,,,,,,
node/10295758274,Panneau 30,5.323764,-3.872510,,,,,,,,,,
node/10295758275,2 Poteaux,5.325622,-3.875264,,,,,,,,,,
node/10295758277,Maison Blanche,5.329915,-3.865892,,,,,,,,,,
node/10295758278,Panneau 30,5.323235,-3.869782,,,,,,,,,,
node/10295758279,2 Poteaux,5.325735,-3.875256,,,,,,,,,,
node/10295758280,Chantier,5.324674,-3.873634,,,,,,,,,,
node/10295758281,Chantier,5.324520,-3.873268,,,,,,,,,,
node/10295758282,Carrefour Hilaire,5.323805,-3.872450,,,,,,,,,,
node/10295758283,Panneau 30,5.323188,-3.869925,,,,,,,,,,
node/10295758284,Carrefour sable,5.329545,-3.865989,,,,,,,,,,
node/10295758285,Grâce Amitié,5.333777,-3.863123,,,,,,,,,,
node/10295758286,Eglise,5.335606,-3.861813,,,,,,,,,,
node/10295758287,Petit Carrefour,5.336421,-3.861280,,,,,,,,,,
node/10295758288,Laurier 22,5.337248,-3.860591,,,,,,,,,,
node/10295758289,Panneau 50,5.338985,-3.859345,,,,,,,,,,
node/10295758290,Panneau 50,5.338471,-3.859592,,,,,,,,,,
node/10295758291,Carrefour Anan,5.340177,-3.858369,,,,,,,,,,
node/10295758292,Carrefour Anan,5.340329,-3.858506,,,,,,,,,,
node/10295758293,Carrefour Kiosque,5.341806,-3.860895,,,,,,,,,,
node/10295758294,Carrefour Etal,5.342271,-3.861411,,,,,,,,,,
node/10295758295,Carrefour Etal,5.342254,-3.861603,,,,,,,,,,
node/10295758296,Carrefour Motel,5.344595,-3.865053,,,,,,,,,,
node/10295758297,Carrefour Motel,5.344427,-3.865080,,,,,,,,,,
node/10295758298,Menuiserie,5.347805,-3.870073,,,,,,,,,,
node/10295758299,Menuiserie,5.347703,-3.870099,,,,,,,,,,
node/10295758300,Carrefour Eglise / Adjamé Bingerville,5.349085,-3.871956,,,,,,,,,,
node/10295758301,Carrefour Eglise / Adjamé Bingerville,5.349101,-3.872176,,,,,,,,,,
node/10295758302,Bon Prix,5.351403,-3.875298,,,,,,,,,,
node/10295758303,Carrefour Marché,5.353381,-3.877991,,,,,,,,,,
node/10295758304,Carrefour Marché,5.353528,-3.878354,,,,,,,,,,
node/10296520783,Tapis Rouge,5.403469,-3.982313,,,,,,,,,,
node/10296520784,Pharmacie les Arcades/Terminus 205,5.403379,-3.976079,,,,,,,,,,
node/10296520785,Caféier 8,5.399367,-3.970412,,,,,,,,,,
node/10296520786,Programme 6,5.396855,-3.969211,,,,,,,,,,
node/10296520787,Cité Diaspora,5.399947,-3.965210,,,,,,,,,,
node/10296520788,Feu Gestoci,5.402570,-3.961412,,,,,,,,,,
node/10296520789,Dady Shekina,5.401243,-3.960525,,,,,,,,,,
node/10296520791,Programme 6,5.396803,-3.969349,,,,,,,,,,
node/10296520792,Pharmacie Belle vue d’angré,5.400252,-3.971154,,,,,,,,,,
node/10296520793,Jean Paul 2,5.400456,-3.972028,,,,,,,,,,
node/10296520794,Pharmacie les Arcades/Terminus 205,5.403200,-3.976433,,,,,,,,,,
node/10296520795,Tapis Rouge,5.403419,-3.982442,,,,,,,,,,
node/10296520796,Nouvelle Station Petro Ivoire,5.404032,-3.987556,,,,,,,,,,
node/10296548822,Rose Blanche,5.398790,-3.993280,,,,,,,,,,
node/10296548824,Angré Petro Ivoire,5.404169,-3.990675,,,,,,,,,,
node/10296548825,Carrefour Adama Sanogo,5.401327,-3.991015,,,,,,,,,,
node/10296548826,22ème,5.398375,-3.991772,,,,,,,,,,
node/10296548827,Rose Blanche,5.398706,-3.993452,,,,,,,,,,
node/10296548829,Carrefour rue des bars,5.398946,-3.994359,,,,,,,,,,
node/10296548830,Carrefour Temple,5.399279,-3.995931,,,,,,,,,,
node/10296548832,Mahou,5.399522,-3.997438,,,,,,,,,,
node/10296557067,Carrefour Temple,5.399351,-3.995900,,,,,,,,,,
node/10296557068,Caféier 6,5.407675,-3.988607,,,,,,,,,,
node/10296557069,Pharmacie du château Angré,5.413469,-3.979849,,,,,,,,,,
node/10296557070,Geo-Beton,5.399778,-3.999290,,,,,,,,,,
node/10296715479,Hôtel Ivoire,5.328144,-4.005201,,,,,,,,,,
node/10296715480,Hôtel Palm Club,5.352415,-4.002059,,,,,,,,,,
node/10296715481,Farandole,5.363149,-3.997609,,,,,,,,,,
node/10296715482,Carrefour macaci,5.365339,-3.997605,,,,,,,,,,
node/10296715483,2 Plateaux Mobil,5.368598,-3.998305,,,,,,,,,,
node/10296715484,Banque SGBCI,5.371359,-3.998347,,,,,,,,,,
node/10296715485,Petit Carrefour,5.372522,-3.998542,,,,,,,,,,
node/10296715486,Carrefour 12ème arrondissement,5.374942,-3.998564,,,,,,,,,,
node/10296715487,Mahikari,5.389479,-3.992664,,,,,,,,,,
node/10296715488,Ancienne Ambassade de Chine,5.391912,-3.992366,,,,,,,,,,
node/10296715489,Cité Papayer,5.395707,-3.991886,,,,,,,,,,
node/10296715490,22ème,5.398181,-3.991591,,,,,,,,,,
node/10296715491,Carrefour Star 6,5.406847,-3.989904,,,,,,,,,,
node/10296727802,Pharmacie Centrale Angré,5.411128,-3.983288,,,,,,,,,,
node/10296727803,22ème,5.398575,-3.991346,,,,,,,,,,
node/10296727804,Cité Papayer,5.396080,-3.991634,,,,,,,,,,
node/10296727805,Ancienne Ambassade de Chine,5.391508,-3.992215,,,,,,,,,,
node/10296727806,Carrefour Duncan,5.377782,-3.997171,,,,,,,,,,
node/10296727807,SOCOCE 2 Pltx,5.373615,-3.998343,,,,,,,,,,
node/10296727808,Petit Carrefour,5.372625,-3.998345,,,,,,,,,,
node/10296745509,Banque SGBCI,5.371288,-3.998117,,,,,,,,,,
node/10296745510,Carrefour macaci,5.365091,-3.997397,,,,,,,,,,
node/10296745511,Farandole,5.363161,-3.997406,,,,,,,,,,
node/10296745512,ENA,5.360718,-3.997659,,,,,,,,,,
node/10296745513,BMW,5.358156,-4.000967,,,,,,,,,,
node/10296745514,Hôtel Palm Club,5.351963,-4.001940,,,,,,,,,,
node/10296745515,Sodemi,5.344332,-4.002831,,,,,,,,,,
node/10296745516,RTI,5.343152,-4.002972,,,,,,,,,,
node/10296745517,Pharmacie St Jean,5.337344,-4.003734,,,,,,,,,,
node/10296810721,Doraville,5.358991,-3.978462,,,,,,,,,,
node/10296810722,Garage Al bayan,5.360006,-3.978621,,,,,,,,,,
node/10296810723,Polyclinique Sacré-Coeur,5.364810,-3.979337,,,,,,,,,,
node/10296810724,Escalier,5.369477,-3.977706,,,,,,,,,,
node/10296810725,Garage Al bayan,5.360018,-3.978503,,,,,,,,,,
node/10296873000,Groupe Scolaire Winner Grâce Faveur,5.408360,-3.986770,,,,,,,,,,
node/10296873001,Pharmacie du Jubilé,5.406489,-3.985519,,,,,,,,,,
node/10296873002,SNEDAI,5.405566,-3.984998,,,,,,,,,,
node/10296873003,Terminus 81/82,5.404679,-3.985035,,,,,,,,,,
node/10296873004,Terminus 81/82,5.404692,-3.985123,,,,,,,,,,
node/10296873005,SNEDAI,5.405650,-3.985119,,,,,,,,,,
node/10296873006,Pharmacie du Jubilé,5.406525,-3.985657,,,,,,,,,,
node/10297050896,Ecole,5.423740,-3.991466,,,,,,,,,,
node/10297050897,Ecole,5.423189,-3.991910,,,,,,,,,,
node/10297050898,Lavage Bleu Blanc,5.423498,-3.995045,,,,,,,,,,
node/10297050899,Lavage Bleu Blanc,5.423494,-3.995276,,,,,,,,,,
node/10297050900,Boulangerie,5.423639,-3.997366,,,,,,,,,,
node/10297050901,Boulangerie,5.423591,-3.997738,,,,,,,,,,
node/10297050902,Eglise,5.423648,-3.998503,,,,,,,,,,
node/10297050903,Eglise,5.423606,-3.999118,,,,,,,,,,
node/10297050904,Hôpital,5.423666,-4.000364,,,,,,,,,,
node/10297050905,Hôpital,5.423620,-4.000734,,,,,,,,,,
node/10297050906,Carrefour Marché,5.423692,-4.001297,,,,,,,,,,
node/10297050907,Ancienne Boulangerie,5.423590,-4.002835,,,,,,,,,,
node/10297050908,Ancienne Boulangerie,5.423371,-4.002815,,,,,,,,,,
node/10297103109,Carrefour a Gauche,5.421994,-4.003722,,,,,,,,,,
node/10297103110,Carrefour Mosquée,5.422063,-4.002862,,,,,,,,,,
node/10297103111,Carrefour Mosquée,5.421998,-4.002809,,,,,,,,,,
node/10297103112,Carrefour a Gauche,5.421961,-4.003763,,,,,,,,,,
node/10297103114,Pharmacie Kennedy,5.418900,-4.005719,,,,,,,,,,
node/10297198771,Allocodrome,5.396613,-4.003355,,,,,,,,,,
node/10297198772,Allocodrome,5.396560,-4.003568,,,,,,,,,,
node/10297198773,Pharmacie,5.396623,-4.003820,,,,,,,,,,
node/10297198774,Pharmacie,5.396571,-4.004181,,,,,,,,,,
node/10297198775,Cité,5.396651,-4.005441,,,,,,,,,,
node/10297198776,Cité,5.396613,-4.005673,,,,,,,,,,
node/10297198777,Arrêt Dokui,5.396674,-4.006136,,,,,,,,,,
node/10297198778,Arrêt Dokui,5.397038,-4.006437,,,,,,,,,,
node/10297198779,Au Sable,5.400951,-4.006456,,,,,,,,,,
node/10297198780,Au Sable,5.401255,-4.006579,,,,,,,,,,
node/10298060242,Ancien Garage,5.440790,-4.046947,,,,,,,,,,
node/10298060243,Glacier,5.443078,-4.048303,,,,,,,,,,
node/10298060244,Plaque Rouge,5.443536,-4.063871,,,,,,,,,,
node/10298060247,Ecole Amani,5.449479,-4.062650,,,,,,,,,,
node/10298060248,Garage Massa/ Bon Prix,5.443671,-4.058004,,,,,,,,,,
node/10298060249,Garage Massa/ Bon Prix,5.443815,-4.057610,,,,,,,,,,
node/10298060250,Petit Carrefour,5.437187,-4.032443,,,,,,,,,,
node/10298060251,Petit Carrefour,5.437279,-4.031947,,,,,,,,,,
node/10298060252,Lavage,5.435058,-4.028224,,,,,,,,,,
node/10298060253,Lavage,5.435084,-4.027977,,,,,,,,,,
node/10298060254,Ancien Garage,5.431856,-4.025066,,,,,,,,,,
node/10298060255,Collé collé,5.431157,-4.024805,,,,,,,,,,
node/10298060256,Collé collé,5.430512,-4.023989,,,,,,,,,,
node/10298095231,A la Mosquée,5.414658,-4.026424,,,,,,,,,,
node/10298095232,Gare des Taxis,5.414861,-4.030124,,,,,,,,,,
node/10298095233,Carrefour Kiosque,5.414718,-4.027684,,,,,,,,,,
node/10298095234,A la Mosquée,5.414728,-4.026211,,,,,,,,,,
node/10298095235,Carrefour 21ème,5.414779,-4.024140,,,,,,,,,,
node/10298095236,Carrefour MTN,5.415592,-4.023993,,,,,,,,,,
node/10298095237,Carrefour MTN,5.415968,-4.024105,,,,,,,,,,
node/10298095238,Carrefour Mosquée,5.417428,-4.023924,,,,,,,,,,
node/10298095239,Carrefour Mosquée,5.417528,-4.024086,,,,,,,,,,
node/10298095240,Ecole Diemory,5.422741,-4.023845,,,,,,,,,,
node/10298095241,Ecole Diemory,5.422957,-4.023924,,,,,,,,,,
node/10298095242,Carrefour Bocabo,5.425317,-4.021916,,,,,,,,,,
node/10298095243,Carrefour Bocabo,5.425457,-4.021783,,,,,,,,,,
node/10300373019,Carrefour à gauche,5.439171,-3.986116,,,,,,,,,,
node/10300373021,Abbatoir,5.451382,-3.975045,,,,,,,,,,
node/10300373022,Abbatoir,5.450541,-3.975230,,,,,,,,,,
node/10300373023,Au portail,5.446208,-3.977798,,,,,,,,,,
node/10300373024,Lavage,5.440373,-3.984900,,,,,,,,,,
node/10300373025,Carrefour à gauche,5.439147,-3.985997,,,,,,,,,,
node/10300373026,Isrod,5.436434,-3.987806,,,,,,,,,,
node/10300373027,Isrod,5.436290,-3.987796,,,,,,,,,,
node/10300373028,Carrefour Eaux et Forêt,5.435297,-3.988252,,,,,,,,,,
node/10300373029,Carrefour Eaux et Forêt,5.435180,-3.988220,,,,,,,,,,
node/10300373030,Carrefour Marché,5.432329,-3.988876,,,,,,,,,,
node/10300373031,Carrefour Marché,5.432181,-3.988839,,,,,,,,,,
node/10300373032,Carrefour Mosquée,5.430385,-3.989173,,,,,,,,,,
node/10300373033,Kiyala,5.429584,-3.989278,,,,,,,,,,
node/10300373034,Kiyala,5.429370,-3.989235,,,,,,,,,,
node/10300373035,Carrefour Colombe,5.429041,-3.989379,,,,,,,,,,
node/10300373036,Conteneur,5.423433,-3.990282,,,,,,,,,,
node/10300373037,Foyer des Jeunes,5.421529,-3.990454,,,,,,,,,,
node/10300373038,34eme,5.420216,-3.990664,,,,,,,,,,
node/10300373039,Wottro Gare,5.419457,-3.990780,,,,,,,,,,
node/10300373040,Trois Palmiers,5.417099,-3.991389,,,,,,,,,,
node/10300373041,Trois Palmiers,5.416935,-3.991395,,,,,,,,,,
node/10300373042,Carrefour Chantier,5.416137,-3.992078,,,,,,,,,,
node/10300373043,Carrefour Chantier,5.416087,-3.992016,,,,,,,,,,
node/10300373044,Bienvenue Abobo Baoulé,5.415476,-3.993195,,,,,,,,,,
node/10300373045,Pont Blanc,5.415344,-3.993555,,,,,,,,,,
node/10300373046,Pont Blanc,5.415183,-3.993700,,,,,,,,,,
node/10300373047,Étage Noir,5.415457,-3.999383,,,,,,,,,,
node/10300373048,Ivograin,5.415573,-4.001644,,,,,,,,,,
node/10300373049,Ivograin,5.415496,-4.002130,,,,,,,,,,
node/10300373050,Station Total,5.415588,-4.002721,,,,,,,,,,
node/10300373051,Station Total,5.415514,-4.003024,,,,,,,,,,
node/10300373052,Samaké,5.415108,-4.006759,,,,,,,,,,
node/10300373053,Gare d'Abobo,5.419474,-4.015348,,,,,,,,,,
node/10300817837,Petit Carrefour,5.415739,-4.008143,,,,,,,,,,
node/10302264751,Garage CFA,5.366211,-4.012763,,,,,,,,,,
node/10302264752,Manguier,5.367171,-4.011772,,,,,,,,,,
node/10302264753,Pharmacie Bonne Santé,5.367983,-4.010966,,,,,,,,,,
node/10302264754,Virage,5.368381,-4.010392,,,,,,,,,,
node/10302264755,Terrain de Conduite,5.368423,-4.009780,,,,,,,,,,
node/10302264756,Awoulaba,5.368432,-4.008914,,,,,,,,,,
node/10302264757,Bleu Marine,5.368423,-4.008173,,,,,,,,,,
node/10302264758,Pharmacie des Grâces,5.368421,-4.006822,,,,,,,,,,
node/10302264759,Zé 10,5.368413,-4.006141,,,,,,,,,,
node/10302264760,Ancien barrage,5.368412,-4.005552,,,,,,,,,,
node/10302264761,Celeste,5.368410,-4.004728,,,,,,,,,,
node/10302264762,Garage Moto,5.368421,-4.002830,,,,,,,,,,
node/10302264763,Petit Carrefour,5.368418,-4.001885,,,,,,,,,,
node/10302264764,Carrefour du Marché,5.368421,-4.001302,,,,,,,,,,
node/10302264765,Carrefour Mendiant,5.368428,-3.999929,,,,,,,,,,
node/10302264766,Gare de Yopougon - 2 Plateaux Mobil,5.369048,-3.999911,,,,,,,,,,
node/10302264767,Eglise,5.370982,-3.999929,,,,,,,,,,
node/10302264768,Rue des Maquis,5.371528,-3.999777,,,,,,,,,,
node/10302264769,Boulangerie le Roi du Pain,5.374895,-3.998170,,,,,,,,,,
node/10302264770,Pharmacie Maestro,5.374907,-3.996191,,,,,,,,,,
node/10302264771,Grand Portail,5.373985,-3.994967,,,,,,,,,,
node/10302264772,Pharmacie Maestro,5.374825,-3.996242,,,,,,,,,,
node/10302264773,SOCOCE,5.372076,-3.999585,,,,,,,,,,
node/10302264774,Rue des Maquis,5.371450,-3.999775,,,,,,,,,,
node/10302264775,Gare de Yopougon - 2 Plateaux Mobil,5.368942,-3.999862,,,,,,,,,,
node/10302264776,Carrefour Mendiant,5.368384,-4.000012,,,,,,,,,,
node/10302264777,Carrefour du Marché,5.368381,-4.001350,,,,,,,,,,
node/10302264778,Petit Carrefour,5.368380,-4.001936,,,,,,,,,,
node/10302264779,Ancien Barrage,5.368352,-4.005588,,,,,,,,,,
node/10302264780,Pharmacie des Grâces,5.368358,-4.006832,,,,,,,,,,
node/10302264781,Bleu Marine,5.368372,-4.008180,,,,,,,,,,
node/10302264782,Awoulaba,5.368378,-4.008836,,,,,,,,,,
node/10302264783,Terrain de Conduite,5.368372,-4.009879,,,,,,,,,,
node/10302264784,Pharmacie Bonne Santé,5.367859,-4.010984,,,,,,,,,,
node/10302264785,Manguier,5.367133,-4.011744,,,,,,,,,,
node/10302264786,Garage CFA,5.366095,-4.012786,,,,,,,,,,
node/10302584653,Ambassade du Togo,5.361669,-3.992571,,,,,,,,,,
node/10302584654,Escaliers,5.362410,-3.994683,,,,,,,,,,
node/10302584655,Cratos,5.368371,-4.004153,,,,,,,,,,
node/10302584656,Celeste,5.368357,-4.004708,,,,,,,,,,
node/10302604936,Pharmacie Orchid,5.365776,-3.997403,,,,,,,,,,
node/10302604937,Orange Côte d'Ivoire,5.362513,-3.997181,,,,,,,,,,
node/10302604938,International Cocoa Organization (ICCO),5.362521,-3.995331,,,,,,,,,,
node/10302604939,Escaliers,5.362447,-3.994391,,,,,,,,,,
node/10302604940,Résidence Bertile,5.361786,-3.991685,,,,,,,,,,
node/10302604941,Ambassade du Togo,5.361792,-3.992775,,,,,,,,,,
node/10302629479,Gare Bangui,5.356906,-3.884384,,,,,,,,,,
node/10302629480,Carrefour Kiosque,5.347111,-3.884922,,,,,,,,,,
node/10302629481,Carrefour Mosquée,5.345996,-3.884898,,,,,,,,,,
node/10302629482,Poubelle,5.344225,-3.884838,,,,,,,,,,
node/10302629483,Marché Berlin,5.343844,-3.884890,,,,,,,,,,
node/10302629484,Marché Berlin,5.344663,-3.884960,,,,,,,,,,
node/10302656591,Panneau 30,5.353994,-3.884617,,,,,,,,,,
node/10304347249,Marley,5.419498,-4.020433,,,,,,,,,,
node/10304347250,Mosquée,5.414465,-4.022606,,,,,,,,,,
node/10304347251,Abobo Gare Mairie,5.420996,-4.019010,,,,,,,,,,
node/10304347252,Marché Siaka Kone,5.420750,-4.020295,,,,,,,,,,
node/10304347253,Marley,5.419465,-4.020374,,,,,,,,,,
node/10304347254,A la Ran,5.414117,-4.021765,,,,,,,,,,
node/10304347255,A la Ran,5.414409,-4.021944,,,,,,,,,,
node/10304347256,Mosquée,5.414556,-4.022558,,,,,,,,,,
node/10308544387,Carrefour Impôt,5.392715,-3.986532,,,,,,,,,,
node/10308544388,ANP(Aitorité Nationale de la Presse),5.391348,-3.986703,,,,,,,,,,
node/10308544389,Carrefour Pont Soro,5.390942,-3.986767,,,,,,,,,,
node/10308544390,COOPEC 7e tranche,5.390372,-3.986831,,,,,,,,,,
node/10308544391,Chawarma +,5.388798,-3.986980,,,,,,,,,,
node/10308544392,Café de Versailles,5.386664,-3.987269,,,,,,,,,,
node/10308544393,ESIT,5.380055,-3.988065,,,,,,,,,,
node/10308544394,Clinique Médicale Sacré Coeur,5.378612,-3.988270,,,,,,,,,,
node/10308544395,Pharmacie Tera,5.377903,-3.988104,,,,,,,,,,
node/10308544396,SODECI,5.377658,-3.986145,,,,,,,,,,
node/10308544397,EPP Attoban,5.370823,-3.981684,,,,,,,,,,
node/10308544398,3ème Barrière,5.368745,-3.979957,,,,,,,,,,
node/10308544399,Pharmacie Saint Bernard,5.367601,-3.979657,,,,,,,,,,
node/10308544400,Doraville,5.359055,-3.978318,,,,,,,,,,
node/10308544401,Riviera 2 - Gare annexe,5.354504,-3.977644,,,,,,,,,,
node/10308544403,EPP Attoban,5.370802,-3.981733,,,,,,,,,,
node/10308544404,SODECI,5.377541,-3.985999,,,,,,,,,,
node/10308544405,Pharmacie Tera,5.377900,-3.988351,,,,,,,,,,
node/10308544406,Hôtel La Forge,5.379418,-3.988242,,,,,,,,,,
node/10308544407,ESIT,5.379999,-3.988193,,,,,,,,,,
node/10308544408,UIA,5.380987,-3.988088,,,,,,,,,,
node/10308591409,Top Auto,5.383920,-3.987741,,,,,,,,,,
node/10308591410,Station Shell 7e Tranche,5.385261,-3.987526,,,,,,,,,,
node/10308591411,Café de Versailles,5.386795,-3.987351,,,,,,,,,,
node/10308591413,Chawarma +,5.388808,-3.987088,,,,,,,,,,
node/10308591414,COOPEC 7e tranche,5.390379,-3.986902,,,,,,,,,,
node/10308591415,Carrefour Pont Soro,5.390945,-3.986844,,,,,,,,,,
node/10308591416,ANP(Aitorité Nationale de la Presse),5.391356,-3.986830,,,,,,,,,,
node/10308591417,Carrefour Impôt,5.392723,-3.986615,,,,,,,,,,
node/10308591418,Carrefour Bluethooth,5.394095,-3.986454,,,,,,,,,,
node/10308591419,Complexe Sportif Angré,5.397753,-3.986004,,,,,,,,,,
node/10308625141,1ère Barrière,5.367769,-3.979738,,,,,,,,,,
node/10308625142,2ème Barrière,5.368230,-3.979839,,,,,,,,,,
node/10308625143,3ème Barrière,5.368727,-3.980039,,,,,,,,,,
node/10308625144,4ème Barrière,5.369160,-3.980369,,,,,,,,,,
node/10308625145,Clinique Médicale Sacré Coeur,5.378796,-3.988328,,,,,,,,,,
node/10308625146,Pharmacie des Nations,5.396805,-3.989751,,,,,,,,,,
node/10308658603,Les Oscars,5.394635,-3.990880,,,,,,,,,,
node/10308658604,1er Carrefour,5.394225,-3.987560,,,,,,,,,,
node/10308658605,Top Auto,5.383566,-3.987654,,,,,,,,,,
node/10308658606,4ème Barrière,5.369195,-3.980320,,,,,,,,,,
node/10308658607,1ère Barrière,5.367817,-3.979675,,,,,,,,,,
node/10308658608,2ème Barrière,5.368291,-3.979767,,,,,,,,,,
node/10308815074,Las Palmas,5.380927,-3.996200,,,,,,,,,,
node/10308815075,Ecole Maternelle,5.382251,-3.996069,,,,,,,,,,
node/10308815076,Marché de Aghien,5.383062,-3.995570,,,,,,,,,,
node/10308815077,Carrefour Mosquée,5.383926,-3.994715,,,,,,,,,,
node/10308815078,Pharmacie les Perles,5.385469,-3.994158,,,,,,,,,,
node/10308815079,Cerao,5.385225,-3.992176,,,,,,,,,,
node/10308815080,Pharmacie Magnificat,5.385194,-3.991866,,,,,,,,,,
node/10308815081,Flamboyant,5.384744,-3.988207,,,,,,,,,,
node/10308815082,Station Service Shell,5.384656,-3.987436,,,,,,,,,,
node/10308815083,Alliance CI,5.384507,-3.984930,,,,,,,,,,
node/10308815084,Afor,5.385045,-3.983672,,,,,,,,,,
node/10308815085,Ron-point Zinsou,5.384811,-3.982557,,,,,,,,,,
node/10308815086,Restaurant Africain,5.380733,-3.987380,,,,,,,,,,
node/10308815087,Cash Ivoire,5.385059,-3.991551,,,,,,,,,,
node/10308815088,Las Palmas,5.380911,-3.996080,,,,,,,,,,
node/10308929518,Université des Lagune,5.360450,-3.965615,,,,,,,,,,
node/10308929519,Gossio,5.361435,-3.965904,,,,,,,,,,
node/10308929520,Abidjan Mall,5.362331,-3.966153,,,,,,,,,,
node/10308929521,Infes,5.364090,-3.966699,,,,,,,,,,
node/10308929522,Ahmed Outtara,5.365884,-3.967207,,,,,,,,,,
node/10308929523,Pizza Express,5.366814,-3.967505,,,,,,,,,,
node/10308929524,Paul Ndré,5.367744,-3.967785,,,,,,,,,,
node/10308929525,Saint Joseph,5.369301,-3.968240,,,,,,,,,,
node/10308929526,Église des Assemblées de Dieu,5.370433,-3.968570,,,,,,,,,,
node/10308929527,Eglise Réveil,5.370105,-3.970547,,,,,,,,,,
node/10308929528,Laurier 6,5.371463,-3.970874,,,,,,,,,,
node/10308929529,Gravier,5.373065,-3.970538,,,,,,,,,,
node/10308929530,Carrefour Linda Kouassi,5.372536,-3.970658,,,,,,,,,,
node/10308929531,Carrefour IUA,5.374520,-3.972032,,,,,,,,,,
node/10308929532,Ecole Muguet,5.375987,-3.972479,,,,,,,,,,
node/10308929533,Ecole Muguet,5.375608,-3.972281,,,,,,,,,,
node/10308929534,Carrefour IUA,5.374466,-3.971725,,,,,,,,,,
node/10308929535,Gravier,5.372897,-3.970494,,,,,,,,,,
node/10308929536,Carrefour Linda Kouassi,5.372335,-3.970600,,,,,,,,,,
node/10308929537,Laurier 6,5.371198,-3.970765,,,,,,,,,,
node/10308929538,Eglise Réveil,5.370121,-3.970457,,,,,,,,,,
node/10308929539,Bleu blanc,5.369479,-3.970261,,,,,,,,,,
node/10308929540,AIST,5.368101,-3.969852,,,,,,,,,,
node/10308929541,Avocatier,5.366788,-3.969451,,,,,,,,,,
node/10308929542,Cocotier,5.366003,-3.969208,,,,,,,,,,
node/10308929543,Beau Soleil,5.365196,-3.968993,,,,,,,,,,
node/10308929544,Carrefour Djédjé Mady,5.364408,-3.968748,,,,,,,,,,
node/10308929545,Valoris,5.363782,-3.968544,,,,,,,,,,
node/10308929546,Siriki Konaté,5.362639,-3.968195,,,,,,,,,,
node/10308929547,La maison de la destinée,5.362029,-3.967750,,,,,,,,,,
node/10308929548,Abidjan Mall,5.362353,-3.966051,,,,,,,,,,
node/10308929549,Gossio,5.361338,-3.965748,,,,,,,,,,
node/10308929550,Université des Lagune,5.360283,-3.965426,,,,,,,,,,
node/10311330180,Salle du Royaume,5.363041,-3.960561,,,,,,,,,,
node/10311330181,Carrefour Figuier,5.378753,-3.966710,,,,,,,,,,
node/10311330183,Carrefour Michel Yakice / Bon Prix,5.394610,-3.971055,,,,,,,,,,
node/10311330184,King Deco,5.393987,-3.976576,,,,,,,,,,
node/10311330185,Pharmacie les Arums,5.395822,-3.977047,,,,,,,,,,
node/10311330186,Sicomex,5.398369,-3.977715,,,,,,,,,,
node/10311330187,Pharmacie Avé Maria,5.398242,-3.978745,,,,,,,,,,
node/10311330188,Eglise Méthodiste d'Angré,5.397777,-3.980464,,,,,,,,,,
node/10311330189,Niablé,5.397360,-3.983516,,,,,,,,,,
node/10311330190,Université Careffour,5.398083,-3.989473,,,,,,,,,,
node/10311330191,Lonaci,5.399918,-4.004483,,,,,,,,,,
node/10311349214,SGBCI,5.403171,-3.980114,,,,,,,,,,
node/10311349215,Charwarma +,5.402506,-3.978272,,,,,,,,,,
node/10311349216,Sicomex,5.398417,-3.977581,,,,,,,,,,
node/10311349217,Pharmacie les Arums,5.395659,-3.976836,,,,,,,,,,
node/10311349218,King Deco,5.393956,-3.976414,,,,,,,,,,
node/10311349219,Carrefour Prière,5.393001,-3.976162,,,,,,,,,,
node/10311349220,KFC 8eme tranche,5.389488,-3.975207,,,,,,,,,,
node/10311349221,CIE 8e Tranche Djibi,5.388409,-3.974911,,,,,,,,,,
node/10311349222,Star 12,5.385488,-3.974137,,,,,,,,,,
node/10311349223,Rond-Point CNPS,5.379901,-3.972809,,,,,,,,,,
node/10311349224,Mary's,5.379069,-3.971277,,,,,,,,,,
node/10311349225,Shish,5.378366,-3.969990,,,,,,,,,,
node/10311349226,Pharmacie Saint Moise,5.377841,-3.969048,,,,,,,,,,
node/10311349227,CDCI,5.377078,-3.967626,,,,,,,,,,
node/10311349228,Zoe de Cho,5.376542,-3.966585,,,,,,,,,,
node/10311349229,Rond-Point ADO,5.375688,-3.965912,,,,,,,,,,
node/10311349230,Walebo,5.373156,-3.965272,,,,,,,,,,
node/10311349231,Walebo 2,5.372255,-3.965006,,,,,,,,,,
node/10311349232,Cité du Bonheur,5.367753,-3.963105,,,,,,,,,,
node/10311349233,Petro Ivoire,5.365978,-3.960354,,,,,,,,,,
node/10311349234,Rond-Point de la Palmeraie,5.363963,-3.959699,,,,,,,,,,
node/10311349235,Station,5.362833,-3.959667,,,,,,,,,,
node/10312856601,Carrefour Prestige,5.434698,-3.988426,,,,,,,,,,
node/10312856602,Carrefour Soro,5.453740,-3.973997,,,,,,,,,,
node/10312856603,Garage,5.455651,-3.973204,,,,,,,,,,
node/10312856604,Garage,5.455624,-3.973271,,,,,,,,,,
node/10312856605,Terre Rouge,5.453048,-3.974269,,,,,,,,,,
node/10312856606,Carrefour Bnetd,5.449181,-3.976054,,,,,,,,,,
node/10312856607,Carrefour Bnetd,5.448688,-3.976173,,,,,,,,,,
node/10312856608,Carrefour Boulangerie,5.444256,-3.979598,,,,,,,,,,
node/10312911409,Depôt Ivoire,5.440567,-3.984692,,,,,,,,,,
node/10312911410,Depôt Ivoire,5.440612,-3.984507,,,,,,,,,,
node/10312911411,Defao,5.439875,-3.985428,,,,,,,,,,
node/10312911412,Defao,5.439788,-3.985398,,,,,,,,,,
node/10312911413,Carrefour Prestige,5.434633,-3.988382,,,,,,,,,,
node/10312911414,Boulangerie Orange Blanc Vert,5.427584,-3.989615,,,,,,,,,,
node/10312911415,Boulangerie Orange Blanc Vert,5.427577,-3.989526,,,,,,,,,,
node/10312946412,Sainte Marie,5.433507,-4.020275,,,,,,,,,,
node/10312946413,Terminus Marché Avocatier,5.440578,-4.026098,,,,,,,,,,
node/10312946414,Terminus Marché Avocatier,5.440651,-4.026070,,,,,,,,,,
node/10312946415,carrefour Hôpital Henriette Konan Bedié,5.439739,-4.023861,,,,,,,,,,
node/10312946416,carrefour Hôpital Henriette Konan Bedié,5.439802,-4.023643,,,,,,,,,,
node/10312946417,Pharmacie Amina,5.439738,-4.022850,,,,,,,,,,
node/10312946418,Pharmacie Amina,5.439796,-4.022643,,,,,,,,,,
node/10312946419,Carrefour Avocatier,5.439726,-4.020663,,,,,,,,,,
node/10312946420,Carrefour Avocatier,5.439638,-4.020434,,,,,,,,,,
node/10312946421,CIE,5.439108,-4.020502,,,,,,,,,,
node/10312946422,CIE,5.438674,-4.020413,,,,,,,,,,
node/10312946423,Pharmacie Matene,5.438257,-4.020471,,,,,,,,,,
node/10312946424,Pharmacie Matene,5.438178,-4.020405,,,,,,,,,,
node/10312946425,Impôts,5.436234,-4.020408,,,,,,,,,,
node/10312946426,Impôts,5.435900,-4.020282,,,,,,,,,,
node/10312946427,Camp Commando,5.434804,-4.020230,,,,,,,,,,
node/10312946428,Trois Chaton,5.432375,-4.020246,,,,,,,,,,
node/10312946429,Trois Chaton,5.432310,-4.020157,,,,,,,,,,
node/10313097238,Gare Bocabo après les rails,5.425460,-4.021915,,,,,,,,,,
node/10313097240,Premier Carrefour à Droite,5.431152,-4.028449,,,,,,,,,,
node/10313097242,Hôpital Bocabo,5.425576,-4.034232,,,,,,,,,,
node/10313097243,Carrefour Mosquée,5.425910,-4.033090,,,,,,,,,,
node/10313097244,Carrefour Mosquée,5.425966,-4.033096,,,,,,,,,,
node/10313097245,Carrefour Marché,5.426880,-4.032163,,,,,,,,,,
node/10313097246,Carrefour Marché,5.426978,-4.032171,,,,,,,,,,
node/10313097247,Carrefour Celibataire,5.427677,-4.031621,,,,,,,,,,
node/10313097248,Carrefour Celibataire,5.427784,-4.031608,,,,,,,,,,
node/10313097249,Carrefour Boutique Bleu,5.428600,-4.030820,,,,,,,,,,
node/10313097250,Carrefour Boutique Bleu,5.428662,-4.030831,,,,,,,,,,
node/10313097251,Bangui,5.429275,-4.030272,,,,,,,,,,
node/10313097252,Pharmacie,5.430061,-4.029596,,,,,,,,,,
node/10313097253,Pharmacie,5.430268,-4.029495,,,,,,,,,,
node/10313097254,Premier Lavage,5.430612,-4.029005,,,,,,,,,,
node/10313097255,Premier Lavage,5.430735,-4.029007,,,,,,,,,,
node/10313097256,Bâche Bleu,5.431001,-4.028728,,,,,,,,,,
node/10313097257,Bâche Bleu,5.430888,-4.028691,,,,,,,,,,
node/10313097258,Premier Carrefour à Droite,5.431236,-4.028457,,,,,,,,,,
node/10313097259,Boulangerie Solibra,5.431944,-4.027503,,,,,,,,,,
node/10313097260,Carrefour Ancien Garage,5.430931,-4.026389,,,,,,,,,,
node/10313097261,Carrefour Ancien Garage,5.430865,-4.026239,,,,,,,,,,
node/10313097262,Carrefour Falaise,5.429905,-4.025493,,,,,,,,,,
node/10313097263,Carrefour Falaise,5.429846,-4.025341,,,,,,,,,,
node/10313097264,Carrefour Mosquée Blanche,5.429035,-4.024612,,,,,,,,,,
node/10313097265,Carrefour Mosquée Blanche,5.428998,-4.024494,,,,,,,,,,
node/10313097266,Antenne,5.427723,-4.023441,,,,,,,,,,
node/10313097267,Antenne,5.427768,-4.023423,,,,,,,,,,
node/10313097268,MTN,5.427073,-4.023012,,,,,,,,,,
node/10313097269,MTN,5.427039,-4.022937,,,,,,,,,,
node/10313097270,Boulangerie,5.426332,-4.022526,,,,,,,,,,
node/10313097271,Boulangerie,5.426306,-4.022463,,,,,,,,,,
node/10313097272,Gare Bocabo après les rails,5.425793,-4.022188,,,,,,,,,,
node/10313134976,Cité Policière,5.434957,-4.017607,,,,,,,,,,
node/10313134977,Cité Policière,5.435008,-4.017633,,,,,,,,,,
node/10313134978,Terminus 49,5.435021,-4.015364,,,,,,,,,,
node/10313134979,Terminus 49,5.435077,-4.015052,,,,,,,,,,
node/10313134980,15e Arrondissement,5.432769,-4.012765,,,,,,,,,,
node/10313134981,St François Xavier,5.432663,-4.015964,,,,,,,,,,
node/10313134982,St François Xavier,5.432590,-4.016131,,,,,,,,,,
node/10313134983,Abobo Gendarmerie,5.428120,-4.020065,,,,,,,,,,
node/10313192693,Abobo Gendarmerie,5.428144,-4.020135,,,,,,,,,,
node/10313192694,Avenue Kaza,5.438189,-4.019064,,,,,,,,,,
node/10313192695,Cours Sociaux,5.438413,-4.014822,,,,,,,,,,
node/10313192696,Carrefour Commissaire,5.438456,-4.012379,,,,,,,,,,
node/10313192697,Carrefour Zouglou,5.439802,-4.008669,,,,,,,,,,
node/10313192698,Coffi Gadeau,5.442534,-4.008799,,,,,,,,,,
node/10313192699,Coffi Gadeau,5.442462,-4.008725,,,,,,,,,,
node/10313192700,Mosquée,5.441586,-4.008747,,,,,,,,,,
node/10313192701,Mosquée,5.441452,-4.008688,,,,,,,,,,
node/10313192702,4 Etages,5.438725,-4.008631,,,,,,,,,,
node/10313192703,4 Etages,5.438511,-4.008834,,,,,,,,,,
node/10313192704,Carrefour Bakary,5.438482,-4.010599,,,,,,,,,,
node/10313192705,Carrefour Bakary,5.438443,-4.011055,,,,,,,,,,
node/10313192706,Sodeci,5.438420,-4.013243,,,,,,,,,,
node/10313192707,Pharmacie Matene,5.438100,-4.020323,,,,,,,,,,
node/10313364480,Carrefour Avocatier,5.439835,-4.020527,,,,,,,,,,
node/10313364481,Gros Pneu,5.441121,-4.020565,,,,,,,,,,
node/10313364482,Carrefour Sainte Foi,5.444718,-4.020659,,,,,,,,,,
node/10313364483,Carrefour Sainte Foi,5.444539,-4.020614,,,,,,,,,,
node/10313364484,Carrefour Policier,5.437214,-4.020441,,,,,,,,,,
node/10313364485,Carrefour Policier,5.437055,-4.020353,,,,,,,,,,
node/10313578790,A l'Ecole,5.424150,-4.012882,,,,,,,,,,
node/10313578791,Boulangerie,5.439621,-4.014305,,,,,,,,,,
node/10313578792,Bangui,5.448939,-4.013744,,,,,,,,,,
node/10313578793,Carrefour Colombe,5.444969,-4.014494,,,,,,,,,,
node/10313578794,Carrefour Colombe,5.444822,-4.014406,,,,,,,,,,
node/10313578795,Carrefour Mosquée,5.442734,-4.014248,,,,,,,,,,
node/10313578796,Chibrou,5.441234,-4.014363,,,,,,,,,,
node/10313578797,Chibrou,5.441053,-4.014224,,,,,,,,,,
node/10313578798,Au palmier,5.436996,-4.012522,,,,,,,,,,
node/10313578799,Au palmier,5.436886,-4.012425,,,,,,,,,,
node/10314533512,A la Boutique,5.429511,-4.010675,,,,,,,,,,
node/10314533513,Carrefour Beoumi,5.428001,-4.006903,,,,,,,,,,
node/10314533514,Carrefour Beoumi,5.428047,-4.006943,,,,,,,,,,
node/10314533515,Carrefour à Droite,5.428335,-4.006908,,,,,,,,,,
node/10314533516,Carrefour à Droite,5.428394,-4.006962,,,,,,,,,,
node/10314533517,Carrefour à Gauche,5.428591,-4.006917,,,,,,,,,,
node/10314533518,Carrefour à Gauche,5.428645,-4.006973,,,,,,,,,,
node/10314533519,Carrefour Eglise,5.429529,-4.006955,,,,,,,,,,
node/10314533520,Carrefour Deux Boutiques Collé,5.429603,-4.007382,,,,,,,,,,
node/10314533521,Petit Carrefour,5.429578,-4.007893,,,,,,,,,,
node/10314533522,Carrefour Séraphin,5.429498,-4.008688,,,,,,,,,,
node/10314533523,2e Boutique,5.429522,-4.009288,,,,,,,,,,
node/10314533524,Carrefour Agbekoi,5.429454,-4.010114,,,,,,,,,,
node/10314533525,Au tournant/ Carrefour Chefferie,5.429470,-4.011235,,,,,,,,,,
node/10314533526,Au tournant/ Carrefour Chefferie,5.429439,-4.011288,,,,,,,,,,
node/10314533527,A l'Ecole,5.423918,-4.012909,,,,,,,,,,
node/10314834887,Mahikari,5.389931,-3.992427,,,,,,,,,,
node/10314834888,Mosquée Aghien,5.382888,-3.993298,,,,,,,,,,
node/10314834889,Carrefour la Vie,5.349199,-4.002257,,,,,,,,,,
node/10314834892,Mosquée Aghien,5.382880,-3.993463,,,,,,,,,,
node/10314834893,Opera,5.385499,-3.993148,,,,,,,,,,
node/10314834894,Ancienne Ambassade de Chine,5.391883,-3.992182,,,,,,,,,,
node/10314834896,Carrefour Batim,5.408236,-3.992089,,,,,,,,,,
node/10314834897,Victor Lobad,5.411552,-3.994361,,,,,,,,,,
node/10314834898,Victor Lobad,5.411643,-3.994575,,,,,,,,,,
node/10314834899,Carrefour Hôpital,5.412525,-3.994724,,,,,,,,,,
node/10314834900,Gare Carrefour Angré,5.414122,-3.995309,,,,,,,,,,
node/10314834902,Gare Carrefour Angré,5.414083,-3.995423,,,,,,,,,,
node/10316599907,Station,5.363041,-3.959415,,,,,,,,,,
node/10316599908,Samer,5.366314,-3.960539,,,,,,,,,,
node/10316647710,Fatima,5.370451,-3.961764,,,,,,,,,,
node/10316647711,Groupe Scolaire Divine Grâce,5.371506,-3.961200,,,,,,,,,,
node/10316647712,Cabine Bleue,5.372906,-3.960406,,,,,,,,,,
node/10316647713,Barrière 1,5.374092,-3.962500,,,,,,,,,,
node/10316647714,Barrière 4,5.375629,-3.962965,,,,,,,,,,
node/10316647715,Barrière 5,5.376103,-3.963090,,,,,,,,,,
node/10316647716,Rosiers 1er Programme,5.376568,-3.963217,,,,,,,,,,
node/10316647717,Rond-point Commissariat 35è Art.,5.377131,-3.963400,,,,,,,,,,
node/10316647718,Commissariat 35è Art.,5.377690,-3.963568,,,,,,,,,,
node/10316647719,Pharmacie Val de Grace,5.380354,-3.967402,,,,,,,,,,
node/10316647720,Groupe Scolaire St Marc,5.383220,-3.972349,,,,,,,,,,
node/10316647721,KFC 8eme tranche,5.389540,-3.975367,,,,,,,,,,
node/10316647722,Soleil 3,5.391025,-3.975795,,,,,,,,,,
node/10316684112,SGBCI,5.387496,-3.974669,,,,,,,,,,
node/10316684113,Immeuble CGK,5.383400,-3.973525,,,,,,,,,,
node/10316684114,Carrefour Figuier,5.378861,-3.966721,,,,,,,,,,
node/10316684115,Programme 3,5.379471,-3.964000,,,,,,,,,,
node/10316684116,Rosiers 1er Programme,5.376592,-3.963120,,,,,,,,,,
node/10316684117,Barrière 1,5.374147,-3.962403,,,,,,,,,,
node/10316684118,Kanafrik,5.372403,-3.962339,,,,,,,,,,
node/10316684119,Vitalia,5.371172,-3.962986,,,,,,,,,,
node/10316684120,Samer,5.366374,-3.960516,,,,,,,,,,
node/10316826926,Cité du Bonheur,5.367565,-3.962872,,,,,,,,,,
node/10316826927,Pharmacie Saint-Paul,5.367624,-3.963538,,,,,,,,,,
node/10316826928,Cours des Comptes,5.368616,-3.964089,,,,,,,,,,
node/10316826929,Carrefour Sacré Coeur,5.371574,-3.964880,,,,,,,,,,
node/10316826930,Walebo 2,5.372245,-3.965074,,,,,,,,,,
node/10316826931,Walebo,5.373177,-3.965344,,,,,,,,,,
node/10316826932,Rond-Point ADO,5.376269,-3.966414,,,,,,,,,,
node/10316826933,Depot Carrefour,5.377392,-3.968397,,,,,,,,,,
node/10316826934,Shish,5.378409,-3.970236,,,,,,,,,,
node/10316826935,Mary's,5.379005,-3.971338,,,,,,,,,,
node/10316826936,Rond-Point CNPS,5.380321,-3.973246,,,,,,,,,,
node/10316826937,CNPS,5.386711,-3.974578,,,,,,,,,,
node/10316826938,Sainte Monique,5.399838,-4.001354,,,,,,,,,,
node/10316919736,Samer,5.366312,-3.960414,,,,,,,,,,
node/10316919737,Star 11,5.393564,-3.973891,,,,,,,,,,
node/10316919738,Carrefour Michel Yakice / Bon Prix,5.394984,-3.971030,,,,,,,,,,
node/10316919739,Cocotiers,5.395526,-3.970379,,,,,,,,,,
node/10316919740,Programme 6,5.396737,-3.968965,,,,,,,,,,
node/10316919741,Pharmacie Marie Esther,5.398806,-3.966487,,,,,,,,,,
node/10316919742,Pont Neuf,5.399303,-3.965887,,,,,,,,,,
node/10316919743,CHU Angré,5.400056,-3.957637,,,,,,,,,,
node/10316919744,Vieux Ali,5.395385,-3.956928,,,,,,,,,,
node/10316919745,Golgotha,5.392797,-3.955845,,,,,,,,,,
node/10316919746,Carrefour Berre,5.391688,-3.955092,,,,,,,,,,
node/10316919747,Kimi,5.388409,-3.954947,,,,,,,,,,
node/10316919748,Rond-point Saint Viateur,5.382667,-3.956718,,,,,,,,,,
node/10316919749,Rond-point Programme 4,5.378460,-3.959108,,,,,,,,,,
node/10316919750,Pharmacie Marie Esther,5.376166,-3.960311,,,,,,,,,,
node/10316919751,Carrefour Guiraud,5.371497,-3.957656,,,,,,,,,,
node/10316919752,Carrefour Marché,5.368890,-3.959064,,,,,,,,,,
node/10316919753,Paris Baguette,5.367420,-3.959863,,,,,,,,,,
node/10334345063,Terminus Marché Cocovico,5.400627,-3.979694,,,,,,,,,,
node/10334345066,SGBCI,5.403086,-3.980290,,,,,,,,,,
node/10334345067,Star 10,5.401359,-3.982788,,,,,,,,,,
node/10334345068,Inssa,5.400692,-3.982874,,,,,,,,,,
node/10345409257,Pharmacie Marthe Robin,5.374681,-3.955955,,,,,,,,,,
node/10345409258,Cabine Jaune,5.374115,-3.956265,,,,,,,,,,
node/10345409259,Sous l'Arbre,5.364161,-3.961574,,,,,,,,,,
node/10345772746,Paris Baguette,5.367571,-3.959859,,,,,,,,,,
node/10345772747,Carrefour Marché,5.368918,-3.959139,,,,,,,,,,
node/10345772748,Pharmacie du bonheur,5.369563,-3.958782,,,,,,,,,,
node/10345772750,Cabine Jaune,5.374153,-3.956323,,,,,,,,,,
node/10345772751,Pharmacie Marthe Robin,5.374712,-3.956014,,,,,,,,,,
node/10345772752,Enica,5.379074,-3.953162,,,,,,,,,,
node/10537141260,Pharmacie Saint Viateur Palmeraie,5.385709,-3.955279,,,,,,,,,,
node/10537141261,2ème barrière Programme 4,5.380784,-3.957844,,,,,,,,,,
node/10537141262,Rond-point Commissariat 35è Art.,5.377012,-3.963090,,,,,,,,,,
node/10537141263,Barrière 5,5.376118,-3.962995,,,,,,,,,,
node/10537141264,Cabine Bleue,5.372994,-3.960290,,,,,,,,,,
node/10537278237,Carrefour Marché,5.373272,-3.960920,,,,,,,,,,
node/10537278239,Pharmacie Marie Esther,5.376192,-3.960369,,,,,,,,,,
node/10537278240,Rond-point Programme 4,5.378091,-3.959415,,,,,,,,,,
node/10537278241,1ère barrière Programme 4,5.379092,-3.958894,,,,,,,,,,
node/10537278242,2ème barrière Programme 4,5.381098,-3.957830,,,,,,,,,,
node/10537278243,Rond-point Saint Viateur,5.383117,-3.956854,,,,,,,,,,
node/10537278244,Pharmacie Saint Viateur Palmeraie,5.385784,-3.955448,,,,,,,,,,
node/10537534148,SGBCI,5.403052,-3.980231,,,,,,,,,,
node/10537534149,Marché Cocovico,5.400817,-3.980491,,,,,,,,,,
node/10537534150,Carrefour Cocovico,5.398027,-3.979941,,,,,,,,,,
node/10537534152,Ancien Carrefour Marché,5.403593,-3.983346,,,,,,,,,,
node/10537534153,Ancien Carrefour Marché,5.403520,-3.983280,,,,,,,,,,
node/10537534154,Terminus 81/82,5.404037,-3.985235,,,,,,,,,,
node/10537894022,Petro Ivoire Angré,5.404590,-3.992257,,,,,,,,,,
node/10537894023,Star 9,5.410151,-3.993730,,,,,,,,,,
node/10537894024,Carrefour Batim,5.408241,-3.992372,,,,,,,,,,
node/10537894025,Carrefour Batim,5.408425,-3.992409,,,,,,,,,,
node/10537894026,Star 9,5.410147,-3.993918,,,,,,,,,,
node/10537894027,Carrefour Hôpital,5.412683,-3.994939,,,,,,,,,,
node/10537894028,Terrain d'Aboboté,5.413678,-3.997452,,,,,,,,,,
node/10537894029,Terrain d'Aboboté,5.413392,-3.997910,,,,,,,,,,
node/10537894030,Eglise Catholique Saint Augustin,5.413814,-4.003584,,,,,,,,,,
node/10537894031,Eglise Catholique Saint Augustin,5.413846,-4.003830,,,,,,,,,,
node/10538268136,SGBCI,5.403102,-3.980100,,,,,,,,,,
node/10538268137,Lycee Moderne d'Angré,5.409840,-3.980001,,,,,,,,,,
node/10538268138,Carrefour Château,5.412207,-3.981564,,,,,,,,,,
node/10538289698,Hamed Ouattara,5.366642,-3.963492,,,,,,,,,,
node/10538297824,Lycee Moderne d'Angré,5.409833,-3.979819,,,,,,,,,,
node/10538297825,Cité Arc-en-ciel,5.403070,-3.977948,,,,,,,,,,
node/10538297826,Pharmacie Belle vue d’angré,5.400420,-3.971204,,,,,,,,,,
node/10538297827,Bon Prix Angré,5.394246,-3.970869,,,,,,,,,,
node/10538297828,Elite 2,5.391448,-3.970146,,,,,,,,,,
node/10538297829,Pharmacie Mont Carmel,5.385816,-3.968719,,,,,,,,,,
node/10538297830,Carrefour Belle Côte,5.383127,-3.968122,,,,,,,,,,
node/10538297831,Rond-point Commissariat 35è Art.,5.376887,-3.963216,,,,,,,,,,
node/10538307161,Rue de Banques,5.403331,-3.978581,,,,,,,,,,
node/10540006515,Rond-point Commissariat 35è Art.,5.377113,-3.963152,,,,,,,,,,
node/10540006516,Golgotha,5.392814,-3.956111,,,,,,,,,,
node/10540006517,Vieux Ali,5.395634,-3.957093,,,,,,,,,,
node/10540006518,Pharmacie Val D'Oise,5.397681,-3.956775,,,,,,,,,,
node/10540066972,Carrefour Mosquée,5.400408,-3.958823,,,,,,,,,,
node/10540066973,Dady Shekina,5.401243,-3.960249,,,,,,,,,,
node/10540066974,Rond-point Saint Viateur,5.382959,-3.956257,,,,,,,,,,
node/10540066975,Collège Saint-Viateur d'Abidjan,5.381711,-3.954884,,,,,,,,,,
node/10540066976,La Communauté,5.380550,-3.954065,,,,,,,,,,
node/10540066977,Carrefour Complexe,5.376813,-3.954820,,,,,,,,,,
node/10540113050,Centre Hospitalier Palmeraie,5.363386,-3.962736,,,,,,,,,,
node/10540113051,Pharmacie Saint Moise,5.377774,-3.969079,,,,,,,,,,
node/10540113052,Charwarma +,5.402470,-3.978456,,,,,,,,,,
node/10540116943,Centre Hospitalier Palmeraie,5.363345,-3.962606,,,,,,,,,,
node/10540200047,Carrefour Morgue,5.400447,-3.958905,,,,,,,,,,
node/10540200048,Carrefour Morgue,5.400340,-3.959090,,,,,,,,,,
node/10540200049,Caféier 8,5.399490,-3.970561,,,,,,,,,,
node/10540200050,Nouvelle Station Petro Ivoire,5.404235,-3.987706,,,,,,,,,,
node/10540351827,Port de Pêche,5.287119,-4.008356,,,,,,,,,,
node/10540351828,Copharmed,5.285506,-4.008304,,,,,,,,,,
node/10540351829,SIR,5.257491,-3.987063,,,,,,,,,,
node/10540351830,Carrefour Ecole Selmer,5.257547,-3.969787,,,,,,,,,,
node/10540351831,Pharmacie Saint Ambroise,5.257480,-3.968232,,,,,,,,,,
node/10540351832,Terrain,5.257251,-3.967239,,,,,,,,,,
node/10540351833,Panneau,5.257099,-3.966711,,,,,,,,,,
node/10540411650,Château,5.338171,-4.003807,,,,,,,,,,
node/10540411651,Sainte Marie,5.345715,-4.002646,,,,,,,,,,
node/10540411652,Immeuble Carbone,5.347086,-4.002744,,,,,,,,,,
node/10540411653,A l'arrêt,5.351431,-4.002190,,,,,,,,,,
node/10540746391,Marché Port-Bouët,5.258071,-3.962953,,,,,,,,,,
node/10540746392,Carrefour Ecole,5.260025,-3.962515,,,,,,,,,,
node/10540746393,Station Vinko,5.256766,-3.973436,,,,,,,,,,
node/10540746394,Terre rouge,5.257314,-3.979198,,,,,,,,,,
node/10540746395,Pharmacie Vridi,5.258164,-3.981881,,,,,,,,,,
node/10540746396,CIE Vridi,5.257632,-3.985299,,,,,,,,,,
node/10540746397,SIR,5.257007,-3.989032,,,,,,,,,,
node/10540746398,Gestoci,5.259253,-3.998002,,,,,,,,,,
node/10540746399,Port de Pêche,5.287034,-4.008562,,,,,,,,,,
node/10541226939,Terminus Marché de Port-Bouët,5.256673,-3.965224,,,,,,,,,,
node/10541226940,Panneau,5.257032,-3.966719,,,,,,,,,,
node/10541226941,Terrain,5.257171,-3.967269,,,,,,,,,,
node/10541226942,Pharmacie Saint Ambroise,5.257402,-3.968260,,,,,,,,,,
node/10541226943,Carrefour Ecole Selmer,5.257443,-3.969800,,,,,,,,,,
node/10541226944,Pharmacie Vridi,5.258517,-3.981767,,,,,,,,,,
node/10541226945,Carrefour Ecole,5.260484,-3.982032,,,,,,,,,,
node/10541226946,Carrefour Jardin,5.261504,-3.982202,,,,,,,,,,
node/10541226947,Hôpital municipal de Vridi,5.264324,-3.984835,,,,,,,,,,
node/10541226948,Paroisse St Jean Marie Vianney,5.265705,-3.986318,,,,,,,,,,
node/10541226949,Pharmacie Vridi,5.258537,-3.981624,,,,,,,,,,
node/10541702883,Pharmacie Cité Policière,5.256904,-3.970856,,,,,,,,,,
node/10541702884,Pharmacie Vridi Village,5.255569,-3.997176,,,,,,,,,,
node/10541702885,Cité Bernadette,5.253479,-4.002257,,,,,,,,,,
node/10541702886,Terminus SOTRA Vridi Canal,5.253244,-4.004586,,,,,,,,,,
node/10541702887,Carrefour Ciprel,5.260581,-4.013350,,,,,,,,,,
node/10541792295,Carrefour Foxtrot International,5.258695,-4.011170,,,,,,,,,,
node/10541792297,CIE Vridi,5.257731,-3.985504,,,,,,,,,,
node/10541826349,Anani - Rond-point,5.236689,-3.873656,,,,,,,,,,
node/10541826352,Terminus Anani,5.236795,-3.880546,,,,,,,,,,
node/10541826353,Carrefour Motar,5.237361,-3.884300,,,,,,,,,,
node/10541826354,Carrefour Abraham,5.237724,-3.886624,,,,,,,,,,
node/10541826355,Carrefour Chien,5.238718,-3.893221,,,,,,,,,,
node/10541826356,Eglise Catholique,5.240188,-3.902856,,,,,,,,,,
node/10541826357,1er Arrêt Adjoufou,5.244557,-3.930245,,,,,,,,,,
node/10541826358,Djeddah,5.245682,-3.937259,,,,,,,,,,
node/10541826359,ex Hôtel Vigie,5.246247,-3.940722,,,,,,,,,,
node/10541826360,Terminus SOTRA Port-Bouet Phare,5.250885,-3.956206,,,,,,,,,,
node/10541826361,Medico Scolaire,5.251085,-3.956721,,,,,,,,,,
node/10541826362,Pharmacie du Phare,5.252137,-3.958890,,,,,,,,,,
node/10541826363,Marché de Nuit,5.254261,-3.963571,,,,,,,,,,
node/10541854658,Marché de Nuit,5.254347,-3.963567,,,,,,,,,,
node/10541854659,Pharmacie du Phare,5.252224,-3.958895,,,,,,,,,,
node/10541854660,Centre Professionnel,5.251780,-3.957940,,,,,,,,,,
node/10541854661,Terminus SOTRA Port-Bouet Phare,5.251040,-3.956324,,,,,,,,,,
node/10541854662,Djeddah,5.245961,-3.937754,,,,,,,,,,
node/10541854663,1er Arrêt Adjoufou,5.244697,-3.929652,,,,,,,,,,
node/10541854664,Terminus Gonzagueville,5.240081,-3.900822,,,,,,,,,,
node/10541854665,Terre rouge,5.239950,-3.899893,,,,,,,,,,
node/10541854666,Carrefour Chien,5.238905,-3.893169,,,,,,,,,,
node/10541854667,Carrefour Motar,5.237530,-3.883914,,,,,,,,,,
node/10541854668,Terminus Anani,5.236885,-3.879818,,,,,,,,,,
node/10541861363,Terrain,5.241717,-3.899654,,,,,,,,,,
node/10541861364,Carrefour Orange Money,5.251581,-3.899705,,,,,,,,,,
node/10541861365,Carrefour Etat Rouge,5.254016,-3.899757,,,,,,,,,,
node/10541861366,Pharmacie Chatelet,5.255521,-3.899776,,,,,,,,,,
node/10541861367,Carrefour Boulangerie,5.256835,-3.899795,,,,,,,,,,
node/10541861368,Maison Blanche,5.258220,-3.899857,,,,,,,,,,
node/10541861369,Carrefour CTOP,5.260304,-3.899866,,,,,,,,,,
node/10541864310,Carrefour CTOP,5.260148,-3.899778,,,,,,,,,,
node/10541864311,Maison Blanche,5.258173,-3.899740,,,,,,,,,,
node/10541864312,Carrefour Market,5.254790,-3.899645,,,,,,,,,,
node/10541864313,Boulangerie,5.252592,-3.899640,,,,,,,,,,
node/10541864314,Carrefour Lycée,5.250240,-3.899610,,,,,,,,,,
node/10541864315,Marché,5.247705,-3.899618,,,,,,,,,,
node/10541864316,Carrefour Boulangerie,5.245725,-3.899601,,,,,,,,,,
node/10541864317,Cuvette,5.243186,-3.899576,,,,,,,,,,
node/10541868397,Carrefour Superette,5.263699,-3.899514,,,,,,,,,,
node/10541868398,Groupe Scolaire Nyl's,5.264392,-3.896966,,,,,,,,,,
node/10541868399,Dépôt de Gaz,5.267557,-3.893744,,,,,,,,,,
node/10541868400,Lavage,5.268731,-3.892355,,,,,,,,,,
node/10541868401,Carrefour Oscars,5.269309,-3.891258,,,,,,,,,,
node/10541868402,Poissonerie,5.269686,-3.890563,,,,,,,,,,
node/10541868403,Ivoire Brutale,5.270376,-3.890210,,,,,,,,,,
node/10541868404,Carrefour mon Mari m'a laissé,5.274015,-3.889345,,,,,,,,,,
node/10541882097,Carrefour mon Mari m'a laissé,5.274036,-3.889218,,,,,,,,,,
node/10541882098,Ivoire Brutale,5.270353,-3.890013,,,,,,,,,,
node/10541882099,Poissonerie,5.269564,-3.890535,,,,,,,,,,
node/10541882100,Carrefour Oscars,5.269241,-3.891215,,,,,,,,,,
node/10541882101,Lavage,5.268650,-3.892304,,,,,,,,,,
node/10541882102,Dépôt de Gaz,5.267510,-3.893629,,,,,,,,,,
node/10541882103,Garage,5.265149,-3.895545,,,,,,,,,,
node/10543441381,2 Plateaux Mobil,5.368965,-3.998009,,,,,,,,,,
node/10543441383,Snedai,5.377272,-3.997998,,,,,,,,,,
node/10543528059,Panneau 30,5.359233,-3.876005,,,,,,,,,,
node/10543528061,Gare Achokoi,5.376055,-3.835094,,,,,,,,,,
node/10543528062,Marine,5.379644,-3.845549,,,,,,,,,,
node/10543528063,Marine,5.379494,-3.846136,,,,,,,,,,
node/10543528065,Dernier Poteau,5.380573,-3.854348,,,,,,,,,,
node/10543528066,Carrefour Brique,5.378595,-3.856998,,,,,,,,,,
node/10543528067,Carrefour Brique,5.378469,-3.857082,,,,,,,,,,
node/10543528068,Carrefour Achokoi,5.380844,-3.860800,,,,,,,,,,
node/10543528069,Carrefour Achokoi,5.380829,-3.860868,,,,,,,,,,
node/10543528070,Chefferie,5.380136,-3.861582,,,,,,,,,,
node/10543528071,Chefferie,5.380020,-3.861641,,,,,,,,,,
node/10543528072,Harmony 2e,5.377567,-3.864054,,,,,,,,,,
node/10543528073,Harmony 2e,5.377431,-3.864046,,,,,,,,,,
node/10543528074,Cité Harmony 1er,5.375586,-3.865801,,,,,,,,,,
node/10543528075,Panneau 50,5.370941,-3.869755,,,,,,,,,,
node/10543528076,Panneau 50,5.370755,-3.869665,,,,,,,,,,
node/10543528077,Mont Carmel,5.369457,-3.870808,,,,,,,,,,
node/10543528078,Mont Carmel,5.369235,-3.870777,,,,,,,,,,
node/10543528079,Anader 2e Portail,5.367136,-3.872422,,,,,,,,,,
node/10543528080,Anader 2e Portail,5.366931,-3.872397,,,,,,,,,,
node/10543528081,Anader 1er Portail,5.366172,-3.872958,,,,,,,,,,
node/10543528082,Anader 1er Portail,5.366057,-3.872898,,,,,,,,,,
node/10543528083,Carrefour Residence,5.362134,-3.874674,,,,,,,,,,
node/10543528084,Carrefour Residence,5.361971,-3.874657,,,,,,,,,,
node/10543528085,Panneau 30,5.359284,-3.876065,,,,,,,,,,
node/10543528086,Event Carrefour,5.358376,-3.879247,,,,,,,,,,
node/10543528087,Event Carrefour,5.358345,-3.879309,,,,,,,,,,
node/10543528089,Gare Coopec,5.358167,-3.883831,,,,,,,,,,
node/10543528090,Gare Coopec,5.358103,-3.883846,,,,,,,,,,
node/10543635698,Baside,5.346399,-3.838046,,,,,,,,,,
node/10543635699,Trésor,5.346519,-3.839249,,,,,,,,,,
node/10543635700,Trésor,5.346413,-3.839484,,,,,,,,,,
node/10543635701,Cloture Tôle,5.346627,-3.841163,,,,,,,,,,
node/10543635702,Cloture Tôle,5.346566,-3.841815,,,,,,,,,,
node/10543635703,2e Ecole,5.346805,-3.842892,,,,,,,,,,
node/10543635704,Cefal,5.347065,-3.845532,,,,,,,,,,
node/10543635705,Panneau Orange,5.347442,-3.848976,,,,,,,,,,
node/10543635706,Palais,5.347597,-3.850951,,,,,,,,,,
node/10543635707,Palais,5.347533,-3.851361,,,,,,,,,,
node/10543635708,Haute tension,5.347796,-3.852545,,,,,,,,,,
node/10543651509,Maison Blanche,5.348047,-3.854523,,,,,,,,,,
node/10543651510,A la ferme,5.348093,-3.855852,,,,,,,,,,
node/10543651511,Ital,5.348567,-3.859288,,,,,,,,,,
node/10543651512,Nouveau Goudron,5.348683,-3.860182,,,,,,,,,,
node/10543651513,Nouveau Goudron,5.348599,-3.860327,,,,,,,,,,
node/10543651514,Garbadrome,5.348870,-3.861511,,,,,,,,,,
node/10543651515,Garbadrome,5.348742,-3.861421,,,,,,,,,,
node/10543651516,Carrefour Caolais,5.349101,-3.863563,,,,,,,,,,
node/10543651517,Carrefour Caolais,5.349023,-3.863632,,,,,,,,,,
node/10543651518,Carrefour Gravier,5.349331,-3.866556,,,,,,,,,,
node/10543651519,Carrefour Gravier,5.349168,-3.866789,,,,,,,,,,
node/10543651520,Carrefour KS,5.349088,-3.868500,,,,,,,,,,
node/10543651521,Carrefour KS,5.348910,-3.868751,,,,,,,,,,
node/10543651522,Carrefour Garage,5.350740,-3.870067,,,,,,,,,,
node/10543651523,Carrefour Garage,5.350730,-3.870341,,,,,,,,,,
node/10543651524,Pharmacie St André - Marché,5.351152,-3.872348,,,,,,,,,,
node/10543651525,Carrefour Sococé,5.351713,-3.874422,,,,,,,,,,
node/10543651526,Carrefour Sococé,5.351630,-3.874431,,,,,,,,,,
node/10543762846,Lavage,5.355771,-3.876915,,,,,,,,,,
node/10543762847,Carrefour 2 Poteaux,5.368009,-3.871813,,,,,,,,,,
node/10543762848,Carrefour Moayé,5.370257,-3.870232,,,,,,,,,,
node/10543762849,Carrefour Haute Tension,5.373916,-3.867448,,,,,,,,,,
node/10543762850,Carrefour Achokoi,5.380987,-3.860823,,,,,,,,,,
node/10543762851,Gare Adjin,5.394028,-3.854700,,,,,,,,,,
node/10543762854,Dernier Poteau,5.384536,-3.857542,,,,,,,,,,
node/10543762855,Dernier Poteau,5.384274,-3.857414,,,,,,,,,,
node/10543762856,Carrefour Panneau Virage,5.382744,-3.858873,,,,,,,,,,
node/10543762857,Carrefour Conteneur Bleu,5.378931,-3.862616,,,,,,,,,,
node/10543762858,Carrefour Haute Tension,5.373709,-3.867491,,,,,,,,,,
node/10543762859,Carrefour Addoha,5.371817,-3.869058,,,,,,,,,,
node/10543762860,Carrefour Addoha,5.371608,-3.869060,,,,,,,,,,
node/10543762861,Carrefour 2 Poteaux,5.367897,-3.871731,,,,,,,,,,
node/10543762863,Gare Coopec,5.358067,-3.883577,,,,,,,,,,
node/10543762864,Gare Coopec,5.358135,-3.883576,,,,,,,,,,
node/10544177778,Brégbo,5.305392,-3.826513,,,,,,,,,,
node/10544177779,Brégbo,5.305261,-3.826611,,,,,,,,,,
node/10544177780,Carrefour Ferme,5.313400,-3.832282,,,,,,,,,,
node/10544177781,Carrefour Ferme,5.313704,-3.832444,,,,,,,,,,
node/10544177783,Côte D'ivoire Energie,5.322151,-3.830013,,,,,,,,,,
node/10544177784,Côte D'ivoire Energie,5.322177,-3.830463,,,,,,,,,,
node/10544177785,Carrefour Avocatier,5.322912,-3.831554,,,,,,,,,,
node/10544177786,Carrefour Avocatier,5.322796,-3.831749,,,,,,,,,,
node/10544177787,Carrefour Doppel,5.324406,-3.835367,,,,,,,,,,
node/10544177788,Carrefour Doppel,5.324400,-3.835602,,,,,,,,,,
node/10544177789,Carrefour Orange Money,5.325466,-3.838126,,,,,,,,,,
node/10544177790,Carrefour Orange Money,5.325410,-3.838152,,,,,,,,,,
node/10544177791,Ecole,5.326229,-3.839805,,,,,,,,,,
node/10544177792,Ecole,5.326060,-3.839827,,,,,,,,,,
node/10544177793,Carrefour Germain,5.327833,-3.841852,,,,,,,,,,
node/10544177794,Carrefour Germain,5.327881,-3.842252,,,,,,,,,,
node/10548470108,Pont de Sans fil,5.305194,-3.963991,,,,,,,,,,
node/10548476277,Terminus Premoto,5.269902,-4.005209,,,,,,,,,,
node/10548528709,Carrefour Saint François d'Assise,5.297565,-3.960514,,,,,,,,,,
node/10548528710,Carrefour Saint François d'Assise,5.297615,-3.960625,,,,,,,,,,
node/10548528711,Paroisse Saint François,5.300375,-3.961274,,,,,,,,,,
node/10548528712,Carrefour Entente,5.301492,-3.961537,,,,,,,,,,
node/10548528713,Pharmacie In Challah,5.301206,-3.963230,,,,,,,,,,
node/10548528714,Carrefour Boulangerie,5.303596,-3.963873,,,,,,,,,,
node/10548528715,Pont de Sans fil,5.306312,-3.964089,,,,,,,,,,
node/10548540814,Carrefour Ecole,5.289546,-3.964056,,,,,,,,,,
node/10548540815,Carrefour St Etienne,5.292182,-3.962899,,,,,,,,,,
node/10548540816,Pharmacie In Challah,5.301265,-3.963328,,,,,,,,,,
node/10548555747,Grand Marché de Koumassi,5.292882,-3.961186,,,,,,,,,,
node/10548555748,Carrefour St Etienne,5.292262,-3.962838,,,,,,,,,,
node/10548616016,Abattoir,5.259699,-3.968908,,,,,,,,,,
node/10548616018,Hôpital General,5.263003,-3.963548,,,,,,,,,,
node/10548616019,Carrefour Galilée,5.282805,-3.967709,,,,,,,,,,
node/10548616020,Carrefour les Lagunes,5.282969,-3.967073,,,,,,,,,,
node/10548616021,Groupe Scolaire Pépinière,5.284894,-3.964218,,,,,,,,,,
node/10548627919,Carrefour Total,5.283791,-3.963864,,,,,,,,,,
node/10548627920,Camp Commando de Koumassi,5.283168,-3.965780,,,,,,,,,,
node/10548627921,Carrefour Galilée,5.282706,-3.967711,,,,,,,,,,
node/10548627922,Akwaba - Rond-Point,5.267393,-3.961959,,,,,,,,,,
node/10548627923,Hôpital General,5.262843,-3.963400,,,,,,,,,,
node/10548627924,Abattoir,5.259086,-3.969733,,,,,,,,,,
node/10548640132,Carrefour IFEF,5.260294,-3.963201,,,,,,,,,,
node/10548640133,Centre Pilote Des Jeunes de Port-Bouët,5.260658,-3.964034,,,,,,,,,,
node/10548640134,Camp Commando de Koumassi,5.283280,-3.965802,,,,,,,,,,
node/10548640135,Carrefour Total,5.283821,-3.963972,,,,,,,,,,
node/10548664715,Akwaba - Rond-Point,5.266670,-3.960799,,,,,,,,,,
node/10548664716,Lycée Moderne de Port-Bouët,5.256042,-3.957815,,,,,,,,,,
node/10548664717,Carrefour Océan,5.256837,-3.961550,,,,,,,,,,
node/10548664718,Marché Port-Bouët,5.257216,-3.963245,,,,,,,,,,
node/10548664719,Terminus Marché de Port-Bouët,5.256876,-3.964730,,,,,,,,,,
node/10550585181,Carrefour Sito,5.285459,-3.955212,,,,,,,,,,
node/10550585182,Au caniveau,5.285034,-3.957033,,,,,,,,,,
node/10550585183,Rois des Bois,5.284820,-3.957920,,,,,,,,,,
node/10550585184,Carrefour Pharmacie Bethanie,5.284522,-3.958988,,,,,,,,,,
node/10550585185,Lavge,5.284092,-3.960922,,,,,,,,,,
node/10550585186,Ancienne Gare,5.283784,-3.962637,,,,,,,,,,
node/10550585187,St Georges,5.283680,-3.963324,,,,,,,,,,
node/10550585188,Carrefour Sito,5.285546,-3.955151,,,,,,,,,,
node/10550585189,Marché de la Gare,5.286242,-3.951811,,,,,,,,,,
node/10550606393,Centre de Perfectionnement aux Métiers du Batiment,5.286580,-3.952427,,,,,,,,,,
node/10550606394,Marché de Bois,5.288220,-3.952986,,,,,,,,,,
node/10550606395,Cimétière de Koumassi,5.292581,-3.955388,,,,,,,,,,
node/10550630141,Marché de Bois,5.288116,-3.952804,,,,,,,,,,
node/10550630142,Carrefour SOS,5.294192,-3.954241,,,,,,,,,,
node/10550630143,Carrefour SOS,5.294395,-3.954184,,,,,,,,,,
node/10550644417,Gare CIE,5.282597,-3.968137,,,,,,,,,,
node/10550644419,Lavge,5.284151,-3.961009,,,,,,,,,,
node/10550644420,Carrefour Pharmacie Saint Lucien,5.285867,-3.953854,,,,,,,,,,
node/10550652415,Marché de la Gare,5.286175,-3.951799,,,,,,,,,,
node/10550652416,Carrefour Pharmacie Saint Lucien,5.285796,-3.953823,,,,,,,,,,
node/10550652417,Lavge,5.282530,-3.968107,,,,,,,,,,
node/10550722912,Carrefour Djédjé,5.350461,-3.882329,,,,,,,,,,
node/10550722913,Pharmacie Gbagba,5.348633,-3.884989,,,,,,,,,,
node/10550722914,Ecole Placali,5.340300,-3.884692,,,,,,,,,,
node/10550722915,Carrefour Cyril,5.338924,-3.884676,,,,,,,,,,
node/10550722916,Carrefour Evangelico,5.338491,-3.884075,,,,,,,,,,
node/10550722917,Carrefour Gaz,5.336525,-3.885015,,,,,,,,,,
node/10550722918,Carrefour Ecole,5.335703,-3.885724,,,,,,,,,,
node/10550722919,Jumeaux,5.334519,-3.886849,,,,,,,,,,
node/10550722920,Immeuble,5.333644,-3.887918,,,,,,,,,,
node/10550722921,Carrefour Céleste,5.333254,-3.888618,,,,,,,,,,
node/10550722922,Carrefour Gaz,5.336608,-3.885089,,,,,,,,,,
node/10550722923,Carrefour Evangelico,5.338470,-3.884230,,,,,,,,,,
node/10550722924,Carrefour Cyril,5.338931,-3.884775,,,,,,,,,,
node/10550722925,Ecole Placali,5.340435,-3.884795,,,,,,,,,,
node/10550722926,Carrefour Djédjé,5.350935,-3.882056,,,,,,,,,,
node/10554624554,Carrefour Anan,5.340425,-3.858411,,,,,,,,,,
node/10554624555,Gare Sodepalme,5.316371,-3.800929,,,,,,,,,,
node/10554624556,Gare Sodepalme,5.316222,-3.800813,,,,,,,,,,
node/10554624558,Koffikro / Carrefour Bananier,5.320279,-3.823517,,,,,,,,,,
node/10554624559,Koffikro / Carrefour Bananier,5.320202,-3.823747,,,,,,,,,,
node/10554624560,Carrefour N'zikan 1er,5.320671,-3.826272,,,,,,,,,,
node/10554624561,Carrefour N'zikan 1er,5.320612,-3.826442,,,,,,,,,,
node/10554624562,Carrefour Impôt,5.339438,-3.856873,,,,,,,,,,
node/10554624563,Carrefour Impôt,5.339445,-3.857240,,,,,,,,,,
node/10554781082,Clinique Bamba,5.420261,-4.008497,,,,,,,,,,
node/10554781083,Grand Stop/ Pharmacie Nour,5.421142,-4.010127,,,,,,,,,,
node/10554781084,Grande Mosquée Inachevée,5.422431,-4.012546,,,,,,,,,,
node/10554781085,Lycée Moderne,5.427243,-4.014516,,,,,,,,,,
node/10554781086,Ancien Garage,5.431786,-4.025363,,,,,,,,,,
node/10554781087,Ecole Djessou,5.448907,-4.051479,,,,,,,,,,
node/10554781088,Boulangerie/ Délice de france,5.445324,-4.049576,,,,,,,,,,
node/10554781089,Poubelle,5.446008,-4.049972,,,,,,,,,,
node/10554781090,Poubelle,5.445955,-4.049727,,,,,,,,,,
node/10554781091,Agripac Après la Feu,5.444624,-4.048965,,,,,,,,,,
node/10554781092,Glacier,5.442958,-4.047998,,,,,,,,,,
node/10554781093,Poubelle,5.437889,-4.037230,,,,,,,,,,
node/10554781094,Poubelle,5.438058,-4.036986,,,,,,,,,,
node/10554781095,Ecole Konaté Freinet,5.427313,-4.016478,,,,,,,,,,
node/10554781096,Lycée Moderne,5.427284,-4.014422,,,,,,,,,,
node/10554781097,Grande Mosquée Inachevée,5.422439,-4.012382,,,,,,,,,,
node/10554781098,Samaké,5.415471,-4.006124,,,,,,,,,,
node/10554856195,Carrefour SOS,5.427263,-4.018099,,,,,,,,,,
node/10554856196,Paris Baguette,5.443365,-4.068424,,,,,,,,,,
node/10554856198,Gare N'dotré,5.443302,-4.069823,,,,,,,,,,
node/10554856199,Carrefour N'dotré,5.443606,-4.069670,,,,,,,,,,
node/10554856200,Carrefour Kobakro,5.445133,-4.070068,,,,,,,,,,
node/10554856201,Boulangerie,5.448263,-4.067678,,,,,,,,,,
node/10554856202,Taxi Gare après pont,5.443913,-4.053143,,,,,,,,,,
node/10554856203,Carrefour SOS,5.427331,-4.018210,,,,,,,,,,
node/10554856204,Grand Stop/ Pharmacie Nour,5.421234,-4.010131,,,,,,,,,,
node/10554856205,Clinique Bamba,5.420332,-4.008447,,,,,,,,,,
node/10554856206,Samaké,5.415567,-4.006299,,,,,,,,,,
node/10555130993,Cité Sogefiha,5.341651,-4.003384,,,,,,,,,,
node/10555130994,Carrefour la Vie,5.348076,-4.002614,,,,,,,,,,
node/10555130995,CIE Cocody St-Jean,5.338508,-4.003590,,,,,,,,,,
node/10555130996,Carrefour Chancellerie,5.329200,-4.004659,,,,,,,,,,
node/10555130997,Carrefour Blockauss,5.327488,-4.001420,,,,,,,,,,
node/10555130998,ITC,5.327718,-4.002272,,,,,,,,,,
node/10555136194,Gagnoa Gare,5.427414,-4.021599,,,,,,,,,,
node/10555136195,Garage Sylla,5.459252,-4.054255,,,,,,,,,,
node/10555136196,Garage Sylla,5.458808,-4.054135,,,,,,,,,,
node/10555136197,Koffi Jean,5.455430,-4.054598,,,,,,,,,,
node/10555136198,Bascule,5.454288,-4.054751,,,,,,,,,,
node/10555136199,Bascule,5.453970,-4.054645,,,,,,,,,,
node/10555136200,Bougouni,5.452707,-4.054696,,,,,,,,,,
node/10555136201,Bougouni,5.452526,-4.054429,,,,,,,,,,
node/10555172683,Pharmacie Providence,5.348280,-4.016982,,,,,,,,,,
node/10555172684,Boulangerie / Depôt,5.346283,-4.021355,,,,,,,,,,
node/10555172685,Boulangerie / Depôt,5.346333,-4.021437,,,,,,,,,,
node/10555172686,Carrefour Californie,5.346794,-4.021193,,,,,,,,,,
node/10555172687,Carrefour Californie,5.346839,-4.021282,,,,,,,,,,
node/10555172688,Carrefour Banfora,5.347365,-4.021023,,,,,,,,,,
node/10555172689,Carrefour Banfora,5.347548,-4.021095,,,,,,,,,,
node/10555172690,Carrefour Complexe,5.348807,-4.020572,,,,,,,,,,
node/10555172691,Carrefour Complexe,5.348824,-4.020630,,,,,,,,,,
node/10555172692,Maternité Thérese,5.348107,-4.018285,,,,,,,,,,
node/10555172693,Au Tournant,5.347986,-4.017360,,,,,,,,,,
node/10555172694,Boulangerie Opera,5.348928,-4.016998,,,,,,,,,,
node/10555172695,Carrefour de La Poste,5.349381,-4.017014,,,,,,,,,,
node/10555172696,Shell,5.352035,-4.016972,,,,,,,,,,
node/10555172697,Shell,5.352370,-4.017055,,,,,,,,,,
node/10556361880,Marché Bellville,5.305808,-3.998042,,,,,,,,,,
node/10556361881,Arret Belleville,5.305434,-3.999148,,,,,,,,,,
node/10556361882,Carrefour Entente,5.304648,-4.001388,,,,,,,,,,
node/10556361883,Eglise Notre-Dame de la Paix,5.303988,-4.003239,,,,,,,,,,
node/10556361884,Avenue 16,5.305043,-4.007288,,,,,,,,,,
node/10556361885,Arret Texaco,5.308364,-4.008853,,,,,,,,,,
node/10556361886,Station Corlay,5.308058,-4.009682,,,,,,,,,,
node/10556361887,Pharmacie du Grand Marché / Rond-point Treichville,5.307293,-4.011812,,,,,,,,,,
node/10556361888,Marché de Treichville,5.309609,-4.013223,,,,,,,,,,
node/10556365490,Marché de Treichville,5.309641,-4.013157,,,,,,,,,,
node/10556365491,Pharmacie Roy,5.308442,-4.012735,,,,,,,,,,
node/10556365492,Foire de Chine,5.307747,-4.012488,,,,,,,,,,
node/10556365493,Pharmacie du Grand Marché / Rond-point Treichville,5.307233,-4.011865,,,,,,,,,,
node/10556365494,Avenue 11 Rue 12 / Pharmacie Rue 12,5.305955,-4.011860,,,,,,,,,,
node/10556365495,Avenue 14 Rue 12,5.303791,-4.011083,,,,,,,,,,
node/10556365496,Tyson,5.303826,-4.010864,,,,,,,,,,
node/10556365497,Pharmacie Alpha 16,5.304483,-4.009060,,,,,,,,,,
node/10556365498,Carrefour St Jean Bosco,5.305944,-4.004571,,,,,,,,,,
node/10556365499,Pharmacie Notre-Dame,5.303929,-4.003901,,,,,,,,,,
node/10556365500,Eglise Notre-Dame de la Paix,5.304116,-4.003055,,,,,,,,,,
node/10556365501,Carrefour Entente,5.304748,-4.001297,,,,,,,,,,
node/10556365502,Arret Belleville,5.305491,-3.999176,,,,,,,,,,
node/10556365503,Marché Bellville,5.305870,-3.998069,,,,,,,,,,
node/10556394811,Palais des Sports,5.298477,-4.005154,,,,,,,,,,
node/10556394812,Marché Samsung,5.299590,-4.007427,,,,,,,,,,
node/10556394813,Carrefour Cacomiaf,5.301089,-4.010221,,,,,,,,,,
node/10556394814,Siège Coris Bank,5.303242,-4.014045,,,,,,,,,,
node/10556394815,Carrefour CTOP Zone 2,5.303579,-4.016141,,,,,,,,,,
node/10556394816,En bas du pont,5.308535,-4.018731,,,,,,,,,,
node/10556394817,Station OLA,5.309301,-4.016356,,,,,,,,,,
node/10556394818,Terminus Marché Treichville,5.309780,-4.014753,,,,,,,,,,
node/10556394819,FIF,5.309471,-4.015625,,,,,,,,,,
node/10556394820,Mairie de Treichville,5.310458,-4.013029,,,,,,,,,,
node/10556394821,Mairie de Treichville,5.310406,-4.013002,,,,,,,,,,
node/10556394822,Station OLA,5.309031,-4.016336,,,,,,,,,,
node/10556394823,Carrefour Flamboyant,5.307743,-4.015897,,,,,,,,,,
node/10556394824,Commissariat du 2ᵉ Arrondissement de Treichville,5.305804,-4.015204,,,,,,,,,,
node/10556394825,Pharmacie Sainte-Jeanne,5.304011,-4.014545,,,,,,,,,,
node/10556394826,Carrefour Cacomiaf,5.301251,-4.010088,,,,,,,,,,
node/10556394827,Kabalane,5.300467,-4.008661,,,,,,,,,,
node/10556394828,Palais des Sports,5.298603,-4.004949,,,,,,,,,,
node/10556409603,Carrefour des Banques,5.308389,-3.991103,,,,,,,,,,
node/10556409604,Arrêt Lamartine,5.307973,-3.989127,,,,,,,,,,
node/10556409605,Banque Populaire,5.307054,-3.987479,,,,,,,,,,
node/10556409606,Carrefour Konankro,5.306368,-3.986206,,,,,,,,,,
node/10556409607,Eglise Sainte Therèse,5.303699,-3.987185,,,,,,,,,,
node/10556418950,Eglise Sainte Therèse,5.303760,-3.987290,,,,,,,,,,
node/10556418951,Pharmacie TSF,5.306840,-3.985555,,,,,,,,,,
node/10556418952,Station Shell Marcory,5.308104,-3.984812,,,,,,,,,,
node/10556418953,Carrefour Plein,5.308832,-3.984449,,,,,,,,,,
node/10556418954,Pharmacie Bethesda,5.309762,-3.985511,,,,,,,,,,
node/10556418955,Nouvelle Clinique Farah,5.310557,-3.986970,,,,,,,,,,
node/10556418956,Maurice,5.309792,-3.989250,,,,,,,,,,
node/10556418957,Carrefour des Banques,5.308235,-3.991088,,,,,,,,,,
node/10556418958,Pharmacie des Lagunes,5.307085,-3.994346,,,,,,,,,,
node/10556449445,Pharmacie la Grace,5.304555,-4.011355,,,,,,,,,,
node/10556449446,Avenue 18 Rue 12,5.302448,-4.010605,,,,,,,,,,
node/10556449447,Station Total,5.301639,-4.010170,,,,,,,,,,
node/10556449448,Avenue 18 Rue 13,5.302993,-4.010391,,,,,,,,,,
node/10556449449,Avenue 15 Rue 13,5.304283,-4.010833,,,,,,,,,,
node/10556449450,Avenue 11 Rue 13,5.306145,-4.011500,,,,,,,,,,
node/10556449451,Foire de Chine,5.307722,-4.012582,,,,,,,,,,
node/10556747533,Kabalane,5.300202,-4.008586,,,,,,,,,,
node/10556747534,Pharmacie Sainte-Jeanne,5.303971,-4.014628,,,,,,,,,,
node/10556747535,Commissariat du 2ᵉ Arrondissement de Treichville,5.305803,-4.015287,,,,,,,,,,
node/10556747536,District Sanitaire Trechville/Marcory,5.306395,-4.015491,,,,,,,,,,
node/10556747538,Hôpital General,5.308169,-4.017208,,,,,,,,,,
node/10556747539,Carrefour Ecole,5.307376,-4.017023,,,,,,,,,,
node/10556747540,Château,5.304916,-4.016035,,,,,,,,,,
node/10556747541,Ex Pharmacie Mockey,5.302275,-4.011878,,,,,,,,,,
node/10556842056,Ancien Terminus 67,5.300064,-4.006138,,,,,,,,,,
node/10556842057,Avenue 24,5.301538,-4.006057,,,,,,,,,,
node/10556842058,Avenue 23,5.301984,-4.006210,,,,,,,,,,
node/10556842059,Avenue 22,5.302400,-4.006373,,,,,,,,,,
node/10556842060,Avenue 21,5.302864,-4.006527,,,,,,,,,,
node/10556842061,Avenue 20,5.303294,-4.006673,,,,,,,,,,
node/10556842062,Avenue 19,5.303717,-4.006831,,,,,,,,,,
node/10556842063,Avenue 18,5.304159,-4.006989,,,,,,,,,,
node/10556842064,Avenue 17,5.304580,-4.007141,,,,,,,,,,
node/10556842065,Avenue 15,5.305561,-4.007476,,,,,,,,,,
node/10556842066,Avenue 14,5.305931,-4.007608,,,,,,,,,,
node/10556842068,Avenue 12,5.306797,-4.007906,,,,,,,,,,
node/10556842069,Avenue 11,5.307259,-4.008076,,,,,,,,,,
node/10556842070,Avenue 10,5.307686,-4.008223,,,,,,,,,,
node/10556842071,Avenue 7,5.308954,-4.008671,,,,,,,,,,
node/10556842072,Avenue 6,5.309406,-4.008831,,,,,,,,,,
node/10556842073,Avenue 5,5.309774,-4.008969,,,,,,,,,,
node/10556842074,Avenue 4,5.310191,-4.009118,,,,,,,,,,
node/10556842075,Avenue 3,5.310545,-4.009250,,,,,,,,,,
node/10556842076,Cité Sopim,5.311472,-4.009564,,,,,,,,,,
node/10556842077,Gare Lagunaire Treichville STL,5.312868,-4.010077,,,,,,,,,,
node/10556842078,Gare Lagunaire Treichville STL,5.312890,-4.010029,,,,,,,,,,
node/10556948059,Carrefour Pâtisserie,5.350910,-4.017071,,,,,,,,,,
node/10556948060,Chez Hassan,5.353126,-4.017173,,,,,,,,,,
node/10556948061,2ème Feu Agban,5.359364,-4.016852,,,,,,,,,,
node/10556948062,Djeni Kobenan,5.362789,-4.017186,,,,,,,,,,
node/10556948063,Carrefour Poulet,5.366143,-4.021071,,,,,,,,,,
node/10556948064,Macaci,5.376515,-4.025595,,,,,,,,,,
node/10556948066,Macaci,5.376493,-4.025505,,,,,,,,,,
node/10556948068,Carrefour Station,5.374710,-4.026027,,,,,,,,,,
node/10556948069,Escalier,5.373452,-4.026893,,,,,,,,,,
node/10556948070,Escalier,5.373410,-4.026814,,,,,,,,,,
node/10556948071,Garage Mercedes,5.372383,-4.026936,,,,,,,,,,
node/10556948072,BMW,5.371575,-4.027039,,,,,,,,,,
node/10556948073,Dépôt Solibra - Williamsville,5.370957,-4.026963,,,,,,,,,,
node/10556948074,Dépôt Solibra - Williamsville,5.370992,-4.027069,,,,,,,,,,
node/10556948075,Craven,5.369560,-4.026389,,,,,,,,,,
node/10556948077,Petit Portail CRS,5.368517,-4.025937,,,,,,,,,,
node/10556948078,Petit Portail CRS,5.368542,-4.025870,,,,,,,,,,
node/10556948079,CRS,5.367381,-4.024824,,,,,,,,,,
node/10556948080,CRS,5.367306,-4.024888,,,,,,,,,,
node/10556948081,Cité Universitaire,5.367397,-4.024160,,,,,,,,,,
node/10556948082,Cité Universitaire,5.367311,-4.024157,,,,,,,,,,
node/10556948083,Terminus 14,5.367293,-4.023375,,,,,,,,,,
node/10556948084,Terminus 14,5.367357,-4.023384,,,,,,,,,,
node/10556948085,Commissariat de la Police du 11ᵉ Arrondissements,5.367310,-4.022843,,,,,,,,,,
node/10556948086,Commissariat de la Police du 11ᵉ Arrondissements,5.367356,-4.022770,,,,,,,,,,
node/10556948087,Cafétière,5.367273,-4.021968,,,,,,,,,,
node/10556948088,Cafétière,5.367300,-4.021926,,,,,,,,,,
node/10556948089,Carrefour Copa Barry,5.366659,-4.021475,,,,,,,,,,
node/10556948090,Carrefour Copa Barry,5.366697,-4.021416,,,,,,,,,,
node/10556948091,Pharmacie Williamsville,5.365752,-4.020654,,,,,,,,,,
node/10556948092,Grande Mosquée de Williamsville,5.365525,-4.020514,,,,,,,,,,
node/10556948093,Grande Mosquée de Williamsville,5.365246,-4.020057,,,,,,,,,,
node/10556948094,Dépôt,5.364777,-4.019620,,,,,,,,,,
node/10556948095,Dépôt,5.364828,-4.019568,,,,,,,,,,
node/10556948097,Ozanga,5.364485,-4.019167,,,,,,,,,,
node/10556948099,Kiosque Mimos,5.364107,-4.018718,,,,,,,,,,
node/10556948100,Carrefour Affou Keita,5.363687,-4.018260,,,,,,,,,,
node/10556948101,Carrefour Affou Keita,5.363735,-4.018219,,,,,,,,,,
node/10556948102,Feu Sapeurs Pompiers,5.341845,-4.021664,,,,,,,,,,
node/10556948103,Eglise Saint Michel,5.344787,-4.022922,,,,,,,,,,
node/10556948104,Gare Saint Michel,5.346472,-4.022776,,,,,,,,,,
node/10556998268,Carrefour Dallas,5.341991,-4.023814,,,,,,,,,,
node/10556998269,Eglise Méthodiste,5.343586,-4.023565,,,,,,,,,,
node/10557030136,Pharmacie Rapha,5.371811,-4.026764,,,,,,,,,,
